[
  {
    "name": "Lagos TSQ",
    "type": "restaurant",
    "address": "727 7th Ave, New York, NY 10019, USA",
    "lat": 40.7600011,
    "lng": -73.9836749,
    "phone": "+1 212-281-0500",
    "website": "https://www.lagosnyc.com/",
    "source": "google",
    "source_id": "ChIJG9u1qKtZwokR28mb77l_8Jc",
    "search_term": "African restaurant",
    "country": "US",
    "city": "New York"
  },
  {
    "name": "D. Salam African Cuisine",
    "type": "restaurant",
    "address": "89 Canal St, New York, NY 10002, USA",
    "lat": 40.715494799999995,
    "lng": -73.9934822,
    "phone": "+1 646-879-4537",
    "website": null,
    "source": "google",
    "source_id": "ChIJRRvTTQBbwokRVcsL610X46Y",
    "search_term": "African restaurant",
    "country": "US",
    "city": "New York"
  },
  {
    "name": "Teranga Midtown",
    "type": "restaurant",
    "address": "601 Lexington Avenue, 153 E 53rd St, New York, NY 10022, USA",
    "lat": 40.758362,
    "lng": -73.9698216,
    "phone": "+1 332-910-8138",
    "website": "https://itsteranga.com/",
    "source": "google",
    "source_id": "ChIJi-bJgEtZwokRFayt5jCnQz0",
    "search_term": "African restaurant",
    "country": "US",
    "city": "New York"
  },
  {
    "name": "Buka",
    "type": "restaurant",
    "address": "1111 Fulton St, Brooklyn, NY 11238, USA",
    "lat": 40.681703299999995,
    "lng": -73.9570928,
    "phone": "+1 347-763-0619",
    "website": "https://bukanewyork.com/?utm_source=google",
    "source": "google",
    "source_id": "ChIJPdXlLqNbwokRToFmx2p9CJ4",
    "search_term": "African restaurant",
    "country": "US",
    "city": "New York"
  },
  {
    "name": "Native Harlem",
    "type": "restaurant",
    "address": "2319 Frederick Douglass Blvd, New York, NY 10027, USA",
    "lat": 40.80982720000001,
    "lng": -73.9516506,
    "phone": "+1 212-516-9475",
    "website": "https://native125th.com/",
    "source": "google",
    "source_id": "ChIJUelrZgL3wokREoU8Uinnoqk",
    "search_term": "African restaurant",
    "country": "US",
    "city": "New York"
  },
  {
    "name": "Africa Kine",
    "type": "restaurant",
    "address": "2267 Adam Clayton Powell Jr Blvd, New York, NY 10027, USA",
    "lat": 40.8141672,
    "lng": -73.9441215,
    "phone": "+1 212-666-9400",
    "website": "http://www.africakinenyc.com/?utm_source=gmb&utm_medium=website",
    "source": "google",
    "source_id": "ChIJWVImwBb2wokRi2ARhzQeaos",
    "search_term": "African restaurant",
    "country": "US",
    "city": "New York"
  },
  {
    "name": "Azara Kitchen LLC",
    "type": "restaurant",
    "address": "348 Lenox Ave, New York, NY 10027, USA",
    "lat": 40.809303299999996,
    "lng": -73.9440363,
    "phone": "+1 646-476-4224",
    "website": "https://azarakitchen.com/?utm_source=google",
    "source": "google",
    "source_id": "ChIJz3h9_zn3wokRGIG3gczgc1E",
    "search_term": "African restaurant",
    "country": "US",
    "city": "New York"
  },
  {
    "name": "La Savane d'Afrique",
    "type": "restaurant",
    "address": "239 W 116th St, New York, NY 10026, USA",
    "lat": 40.8042391,
    "lng": -73.9543353,
    "phone": null,
    "website": null,
    "source": "google",
    "source_id": "ChIJJYYItxb2wokRhl8VETx04Tc",
    "search_term": "African restaurant",
    "country": "US",
    "city": "New York"
  },
  {
    "name": "Tatiana by Kwame Onwuachi",
    "type": "restaurant",
    "address": "10 Lincoln Center Plaza, New York, NY 10023, USA",
    "lat": 40.772786200000006,
    "lng": -73.983104,
    "phone": "+1 212-875-5222",
    "website": "https://www.tatiananyc.com/",
    "source": "google",
    "source_id": "ChIJxy0SM0xZwokR5vC0f4wVlP0",
    "search_term": "African restaurant",
    "country": "US",
    "city": "New York"
  },
  {
    "name": "Native Restaurant and Lounge",
    "type": "restaurant",
    "address": "911 Broadway, Brooklyn, NY 11206, USA",
    "lat": 40.6979002,
    "lng": -73.9362817,
    "phone": "+1 718-747-8288",
    "website": "http://nativebk.com/",
    "source": "google",
    "source_id": "ChIJzeNrKMxbwokR0tBmZuIbpwo",
    "search_term": "African restaurant",
    "country": "US",
    "city": "New York"
  },
  {
    "name": "Swahili Village - Newark, NJ",
    "type": "restaurant",
    "address": "2 Center St, Newark, NJ 07102, USA",
    "lat": 40.739084999999996,
    "lng": -74.16705189999999,
    "phone": "+1 862-240-1051",
    "website": "https://www.swahilivillages.com/",
    "source": "google",
    "source_id": "ChIJy1ru4oBTwokReWX1QCDr1fo",
    "search_term": "African restaurant",
    "country": "US",
    "city": "New York"
  },
  {
    "name": "Sylla",
    "type": "restaurant",
    "address": "1664 Park Ave, New York, NY 10035, USA",
    "lat": 40.800377499999996,
    "lng": -73.9428933,
    "phone": "+1 646-344-1392",
    "website": null,
    "source": "google",
    "source_id": "ChIJ8cO6EbH3wokRs0M2GGlpRww",
    "search_term": "African restaurant",
    "country": "US",
    "city": "New York"
  },
  {
    "name": "Voil\u00e0 Afrique",
    "type": "restaurant",
    "address": "Inside Giant Farmers Market, 324 Main St, Hackensack, NJ 07601, USA",
    "lat": 40.8883788,
    "lng": -74.0401563,
    "phone": "+1 917-327-3510",
    "website": "http://voilaafrique.com/",
    "source": "google",
    "source_id": "ChIJ2ZGvvvdZwokRkF5GiWyBOjc",
    "search_term": "African restaurant",
    "country": "US",
    "city": "New York"
  },
  {
    "name": "Radio Kwara",
    "type": "restaurant",
    "address": "291 Greene Ave, Brooklyn, NY 11238, USA",
    "lat": 40.6875077,
    "lng": -73.9601638,
    "phone": null,
    "website": "https://www.radiokwarabk.com/",
    "source": "google",
    "source_id": "ChIJDyXcTupbwokRQtYLqQrV3ZI",
    "search_term": "African restaurant",
    "country": "US",
    "city": "New York"
  },
  {
    "name": "BB Halal Food Inc",
    "type": "restaurant",
    "address": "165 W 26th St, New York, NY 10001, USA",
    "lat": 40.7459207,
    "lng": -73.99379429999999,
    "phone": "+1 646-429-8174",
    "website": null,
    "source": "google",
    "source_id": "ChIJ9WbzQ6VZwokRJ_qUroHyl6Y",
    "search_term": "African restaurant",
    "country": "US",
    "city": "New York"
  },
  {
    "name": "Joloff",
    "type": "restaurant",
    "address": "1168 Bedford Ave, Brooklyn, NY 11216, USA",
    "lat": 40.6841039,
    "lng": -73.9543911,
    "phone": "+1 718-230-0523",
    "website": "https://www.joloffjoloff.com/",
    "source": "google",
    "source_id": "ChIJAxLlKJdbwokR9uXwxSHa-Ak",
    "search_term": "African restaurant",
    "country": "US",
    "city": "New York"
  },
  {
    "name": "Le Baobab Gouygui",
    "type": "restaurant",
    "address": "120 W 116th St, New York, NY 10026, USA",
    "lat": 40.802343,
    "lng": -73.9510933,
    "phone": "+1 212-864-4700",
    "website": "https://www.lebaobabharlem.com/home",
    "source": "google",
    "source_id": "ChIJ99DG_RD2wokR4v64upVjBOI",
    "search_term": "African restaurant",
    "country": "US",
    "city": "New York"
  },
  {
    "name": "Kaia South African Farmhouse Restaurant",
    "type": "restaurant",
    "address": "1446 1st Ave, New York, NY 10021, USA",
    "lat": 40.7698258,
    "lng": -73.9542275,
    "phone": "+1 212-722-0490",
    "website": "https://www.kaiawinebar.com/",
    "source": "google",
    "source_id": "ChIJ_WXu66RYwokRAGIvfYW8fYk",
    "search_term": "African restaurant",
    "country": "US",
    "city": "New York"
  },
  {
    "name": "Safari",
    "type": "restaurant",
    "address": "55 St Nicholas Ave, New York, NY 10026, USA",
    "lat": 40.8006605,
    "lng": -73.9527667,
    "phone": "+1 646-964-4252",
    "website": "http://www.safariharlem.com/",
    "source": "google",
    "source_id": "ChIJ9SEkNRH2wokRLU8tWoaMUog",
    "search_term": "African restaurant",
    "country": "US",
    "city": "New York"
  },
  {
    "name": "African Pride",
    "type": "restaurant",
    "address": "1895 Eastern Pkwy, Brooklyn, NY 11233, USA",
    "lat": 40.6771564,
    "lng": -73.9082318,
    "phone": "+1 347-627-3410",
    "website": "https://africanpriderestaurant.com/",
    "source": "google",
    "source_id": "ChIJoaGKH5hdwokRWmSIjKRJ0Ts",
    "search_term": "African restaurant",
    "country": "US",
    "city": "New York"
  },
  {
    "name": "Awash Ethiopian Restaurant",
    "type": "restaurant",
    "address": "242, Court Street, 11201, US",
    "lat": 40.6857539,
    "lng": -73.9944417,
    "phone": "+1-718-243-2151",
    "website": "https://www.awashny.com",
    "source": "osm",
    "source_id": "2387017165",
    "search_term": "African restaurant",
    "country": "US",
    "city": "New York"
  },
  {
    "name": "Joloff",
    "type": "restaurant",
    "address": "1168, Bedford Avenue, 11216, US",
    "lat": 40.6840885,
    "lng": -73.954221,
    "phone": "+1-718-230-0523",
    "website": "https://www.joloffjoloff.com",
    "source": "osm",
    "source_id": "2494071312",
    "search_term": "African restaurant",
    "country": "US",
    "city": "New York"
  },
  {
    "name": "Bati Ethiopian Kitchen",
    "type": "restaurant",
    "address": "1057, Fulton Street, 11238, US",
    "lat": 40.6820512,
    "lng": -73.9594715,
    "phone": "+1-718-797-9696",
    "website": "https://www.batikitchen.com",
    "source": "osm",
    "source_id": "2565140913",
    "search_term": "African restaurant",
    "country": "US",
    "city": "New York"
  },
  {
    "name": "Cafe Rue Dix",
    "type": "restaurant",
    "address": "1451, Bedford Avenue, 11216, US",
    "lat": 40.6734983,
    "lng": -73.953866,
    "phone": null,
    "website": null,
    "source": "osm",
    "source_id": "2567972910",
    "search_term": "African restaurant",
    "country": "US",
    "city": "New York"
  },
  {
    "name": "African Pride Restaurant",
    "type": "restaurant",
    "address": "1895, Eastern Parkway, 11233, US",
    "lat": 40.6772693,
    "lng": -73.9082233,
    "phone": "+1-347-627-3410",
    "website": "https://africanpriderestaurant.com",
    "source": "osm",
    "source_id": "2568323937",
    "search_term": "African restaurant",
    "country": "US",
    "city": "New York"
  },
  {
    "name": "Lalibela",
    "type": "restaurant",
    "address": "2084, Frederick Douglass Boulevard, 10026, US",
    "lat": 40.8023112,
    "lng": -73.9566682,
    "phone": "+1-917-409-1609",
    "website": null,
    "source": "osm",
    "source_id": "2762470556",
    "search_term": "African restaurant",
    "country": "US",
    "city": "New York"
  },
  {
    "name": "Dar Lbahja",
    "type": "restaurant",
    "address": "47-12, 30th Avenue, 11103, US",
    "lat": 40.7609525,
    "lng": -73.9090442,
    "phone": "+1 347-242-3702",
    "website": null,
    "source": "osm",
    "source_id": "2846402162",
    "search_term": "African restaurant",
    "country": "US",
    "city": "New York"
  },
  {
    "name": "Meskerem",
    "type": "restaurant",
    "address": "124, MacDougal Street, New York, 10012, US",
    "lat": 40.7299814,
    "lng": -74.0003769,
    "phone": "+1 212 777 8111",
    "website": null,
    "source": "osm",
    "source_id": "3822461834",
    "search_term": "African restaurant",
    "country": "US",
    "city": "New York"
  },
  {
    "name": "Yatenga French Bistro",
    "type": "restaurant",
    "address": "US",
    "lat": 40.8142327,
    "lng": -73.9441134,
    "phone": "+1 212-690-0699",
    "website": null,
    "source": "osm",
    "source_id": "4449731898",
    "search_term": "African restaurant",
    "country": "US",
    "city": "New York"
  },
  {
    "name": "Cafe Mogador",
    "type": "restaurant",
    "address": "101, Saint Mark's Place, New York, 10009, US",
    "lat": 40.7273469,
    "lng": -73.984402,
    "phone": "+1 212-677-2226",
    "website": "https://www.cafemogador.com/",
    "source": "osm",
    "source_id": "4551157295",
    "search_term": "African restaurant",
    "country": "US",
    "city": "New York"
  },
  {
    "name": "Sexy Queen",
    "type": "restaurant",
    "address": "1177, Bedford Avenue, 11216, US",
    "lat": 40.6831772,
    "lng": -73.9537121,
    "phone": "+1-646-320-3952",
    "website": "https://www.sexy-queen.com",
    "source": "osm",
    "source_id": "4774165528",
    "search_term": "African restaurant",
    "country": "US",
    "city": "New York"
  },
  {
    "name": "Mesob Ethiopian",
    "type": "restaurant",
    "address": "515, Bloomfield Avenue, Montclair, 07042, US",
    "lat": 40.8149931,
    "lng": -74.2187158,
    "phone": null,
    "website": "https://mesobrestaurant.com/",
    "source": "osm",
    "source_id": "4837099594",
    "search_term": "African restaurant",
    "country": "US",
    "city": "New York"
  },
  {
    "name": "Merguez and Frites",
    "type": "restaurant",
    "address": "40-06, 25th Avenue, 11103, US",
    "lat": 40.7677156,
    "lng": -73.9115083,
    "phone": "+1 718-204-4770",
    "website": null,
    "source": "osm",
    "source_id": "4931621761",
    "search_term": "African restaurant",
    "country": "US",
    "city": "New York"
  },
  {
    "name": "Little Morocco Mediterranean Cuisine",
    "type": "restaurant",
    "address": "24-39, Steinway Street, Queens, 11103, US",
    "lat": 40.7679918,
    "lng": -73.9114597,
    "phone": "+1 718-440-9193",
    "website": null,
    "source": "osm",
    "source_id": "4931621762",
    "search_term": "African restaurant",
    "country": "US",
    "city": "New York"
  },
  {
    "name": "Ayah Restaurant",
    "type": "restaurant",
    "address": "77, West Houston Street, New York City, 10012, US",
    "lat": 40.7265987,
    "lng": -73.999651,
    "phone": "+1 212-501-8900",
    "website": "https://ayahrestaurant.com",
    "source": "osm",
    "source_id": "5209395822",
    "search_term": "African restaurant",
    "country": "US",
    "city": "New York"
  },
  {
    "name": "Chez Alain",
    "type": "restaurant",
    "address": "2046, Adam Clayton Powell Jr Boulevard, US",
    "lat": 40.8073593,
    "lng": -73.9498334,
    "phone": null,
    "website": null,
    "source": "osm",
    "source_id": "5266905501",
    "search_term": "African restaurant",
    "country": "US",
    "city": "New York"
  },
  {
    "name": "Tsion Cafe",
    "type": "restaurant",
    "address": "763, Saint Nicholas Avenue, US",
    "lat": 40.8262841,
    "lng": -73.9434171,
    "phone": "+1-212-234-2070",
    "website": null,
    "source": "osm",
    "source_id": "5296101437",
    "search_term": "African restaurant",
    "country": "US",
    "city": "New York"
  },
  {
    "name": "Bunna Cafe",
    "type": "restaurant",
    "address": "1084, Flushing Avenue, US",
    "lat": 40.7048893,
    "lng": -73.9278626,
    "phone": "+1-347-295-2227",
    "website": "https://www.bunnaethiopia.net/",
    "source": "osm",
    "source_id": "5798954995",
    "search_term": "African restaurant",
    "country": "US",
    "city": "New York"
  },
  {
    "name": "Kaia Wine Bar",
    "type": "restaurant",
    "address": "1614, 3rd Avenue, 10128, US",
    "lat": 40.7818145,
    "lng": -73.9520354,
    "phone": "+1 212-722-0490",
    "website": "https://www.kaiawinebar.com",
    "source": "osm",
    "source_id": "6228622528",
    "search_term": "African restaurant",
    "country": "US",
    "city": "New York"
  },
  {
    "name": "Merzouka Cafe",
    "type": "restaurant",
    "address": "29-14, Crescent Street, Astoria, 11102, US",
    "lat": 40.7689633,
    "lng": -73.9250036,
    "phone": "+1-718-255-6369",
    "website": "https://merzouka.com/",
    "source": "osm",
    "source_id": "6370603208",
    "search_term": "African restaurant",
    "country": "US",
    "city": "New York"
  },
  {
    "name": "Awash",
    "type": "restaurant",
    "address": "338, East 6th Street, New York, US",
    "lat": 40.7265709,
    "lng": -73.9868216,
    "phone": "+1-212-982-9589",
    "website": "https://awashny.com",
    "source": "osm",
    "source_id": "6468793385",
    "search_term": "African restaurant",
    "country": "US",
    "city": "New York"
  },
  {
    "name": "Abyssinia",
    "type": "restaurant",
    "address": "268, West 135th Street, New York, 10030, US",
    "lat": 40.8160376,
    "lng": -73.9458914,
    "phone": "+1 212 2812673",
    "website": "https://abyssinianyc.com/",
    "source": "osm",
    "source_id": "6511867025",
    "search_term": "African restaurant",
    "country": "US",
    "city": "New York"
  },
  {
    "name": "Shalel",
    "type": "restaurant",
    "address": "65 1/2, West 70th Street, US",
    "lat": 40.7760721,
    "lng": -73.9794282,
    "phone": "+1 212-873-2300",
    "website": "https://shalel.kitchen/",
    "source": "osm",
    "source_id": "6836077126",
    "search_term": "African restaurant",
    "country": "US",
    "city": "New York"
  },
  {
    "name": "Tagine",
    "type": "restaurant",
    "address": "221, West 38th Street, US",
    "lat": 40.7539456,
    "lng": -73.9895539,
    "phone": "+1 646-373-6265",
    "website": "https://taginedining.com/",
    "source": "osm",
    "source_id": "6836090976",
    "search_term": "African restaurant",
    "country": "US",
    "city": "New York"
  },
  {
    "name": "Massawa",
    "type": "restaurant",
    "address": "1239, Amsterdam Avenue, New York, 10027, US",
    "lat": 40.8097913,
    "lng": -73.9586122,
    "phone": "+1-212-663-0505",
    "website": "https://www.massawanyc.com/",
    "source": "osm",
    "source_id": "6927650853",
    "search_term": "African restaurant",
    "country": "US",
    "city": "New York"
  },
  {
    "name": "Awash",
    "type": "restaurant",
    "address": "947, Amsterdam Avenue, New York, 10025, US",
    "lat": 40.800689,
    "lng": -73.9652812,
    "phone": "+1 212-961-1416",
    "website": null,
    "source": "osm",
    "source_id": "7159068917",
    "search_term": "African restaurant",
    "country": "US",
    "city": "New York"
  },
  {
    "name": "Marakesh",
    "type": "restaurant",
    "address": "US",
    "lat": 40.8586873,
    "lng": -74.3586872,
    "phone": null,
    "website": null,
    "source": "osm",
    "source_id": "8026699920",
    "search_term": "African restaurant",
    "country": "US",
    "city": "New York"
  },
  {
    "name": "New Ivoire",
    "type": "restaurant",
    "address": "76, East 119th Street, 10035, US",
    "lat": 40.8013289,
    "lng": -73.9423745,
    "phone": "+1 212-410-5982",
    "website": null,
    "source": "osm",
    "source_id": "9081448356",
    "search_term": "African restaurant",
    "country": "US",
    "city": "New York"
  },
  {
    "name": "The Baobab Gouygui",
    "type": "restaurant",
    "address": "US",
    "lat": 40.6806641,
    "lng": -73.952118,
    "phone": "+1-718-484-4866",
    "website": null,
    "source": "osm",
    "source_id": "9403176562",
    "search_term": "African restaurant",
    "country": "US",
    "city": "New York"
  },
  {
    "name": "Ras",
    "type": "restaurant",
    "address": "US",
    "lat": 40.6734302,
    "lng": -73.9568169,
    "phone": "+1-718-622-6220",
    "website": "https://www.rasplantbased.com",
    "source": "osm",
    "source_id": "9518146176",
    "search_term": "African restaurant",
    "country": "US",
    "city": "New York"
  },
  {
    "name": "Cafe Plus",
    "type": "restaurant",
    "address": "1516, Fulton Street, Brooklyn, 11213, US",
    "lat": 40.6797547,
    "lng": -73.9402608,
    "phone": null,
    "website": "https://thecafeplus.com",
    "source": "osm",
    "source_id": "9532890830",
    "search_term": "African restaurant",
    "country": "US",
    "city": "New York"
  },
  {
    "name": "Le Baobab Gouygui",
    "type": "restaurant",
    "address": "120, West 116th Street, 10026, US",
    "lat": 40.8023545,
    "lng": -73.9509307,
    "phone": "+1 212-864-4700",
    "website": null,
    "source": "osm",
    "source_id": "9553068941",
    "search_term": "African restaurant",
    "country": "US",
    "city": "New York"
  },
  {
    "name": "Safari",
    "type": "restaurant",
    "address": "219, West 116th Street, 10026, US",
    "lat": 40.8038486,
    "lng": -73.9535718,
    "phone": "+1 646-964-4252",
    "website": "https://safariharlem.com",
    "source": "osm",
    "source_id": "9553068946",
    "search_term": "African restaurant",
    "country": "US",
    "city": "New York"
  },
  {
    "name": "Keur Coumba",
    "type": "restaurant",
    "address": "125, West 116th Street, 10026, US",
    "lat": 40.8026563,
    "lng": -73.9507343,
    "phone": "+1 212-866-1551",
    "website": null,
    "source": "osm",
    "source_id": "9553068947",
    "search_term": "African restaurant",
    "country": "US",
    "city": "New York"
  },
  {
    "name": "La Savane",
    "type": "restaurant",
    "address": "239, West 116th Street, 10026, US",
    "lat": 40.8041288,
    "lng": -73.9542537,
    "phone": "+1 646-490-4644",
    "website": "https://www.lasavanerestaurant.com/",
    "source": "osm",
    "source_id": "9553134899",
    "search_term": "African restaurant",
    "country": "US",
    "city": "New York"
  },
  {
    "name": "Pikine",
    "type": "restaurant",
    "address": "243, West 116th Street, 10026, US",
    "lat": 40.8041913,
    "lng": -73.9543835,
    "phone": "+1 646-922-7015",
    "website": "pikinerestaurantny.com",
    "source": "osm",
    "source_id": "9553153273",
    "search_term": "African restaurant",
    "country": "US",
    "city": "New York"
  },
  {
    "name": "Teranga",
    "type": "restaurant",
    "address": "US",
    "lat": 40.7962743,
    "lng": -73.9494139,
    "phone": null,
    "website": "https://itsteranga.com/",
    "source": "osm",
    "source_id": "9633919717",
    "search_term": "African restaurant",
    "country": "US",
    "city": "New York"
  },
  {
    "name": "Buka",
    "type": "restaurant",
    "address": "US",
    "lat": 40.6815735,
    "lng": -73.9571317,
    "phone": "+1-347-763-0619",
    "website": "https://www.bukanewyork.com",
    "source": "osm",
    "source_id": "10594636152",
    "search_term": "African restaurant",
    "country": "US",
    "city": "New York"
  },
  {
    "name": "Hills Kitchen",
    "type": "restaurant",
    "address": "US",
    "lat": 40.7025121,
    "lng": -73.9251238,
    "phone": "+1-929-480-8775",
    "website": null,
    "source": "osm",
    "source_id": "10765067343",
    "search_term": "African restaurant",
    "country": "US",
    "city": "New York"
  },
  {
    "name": "Lagos TSQ",
    "type": "restaurant",
    "address": "US",
    "lat": 40.7600479,
    "lng": -73.9837966,
    "phone": "+1-212-281-0500",
    "website": "https://lagosnyc.com",
    "source": "osm",
    "source_id": "10794176923",
    "search_term": "African restaurant",
    "country": "US",
    "city": "New York"
  },
  {
    "name": "The Dunes Club",
    "type": "restaurant",
    "address": "US",
    "lat": 40.7493752,
    "lng": -73.9831111,
    "phone": "+1-212-532-2210",
    "website": "https://thedunesclubnewyork.com",
    "source": "osm",
    "source_id": "10979453279",
    "search_term": "African restaurant",
    "country": "US",
    "city": "New York"
  },
  {
    "name": "La Petite Corniche",
    "type": "restaurant",
    "address": "US",
    "lat": 40.5426205,
    "lng": -74.1454128,
    "phone": null,
    "website": null,
    "source": "osm",
    "source_id": "11669827719",
    "search_term": "African restaurant",
    "country": "US",
    "city": "New York"
  },
  {
    "name": "Native",
    "type": "restaurant",
    "address": "US",
    "lat": 40.6977732,
    "lng": -73.9363978,
    "phone": null,
    "website": null,
    "source": "osm",
    "source_id": "11943030114",
    "search_term": "African restaurant",
    "country": "US",
    "city": "New York"
  },
  {
    "name": "Addey Ababa",
    "type": "restaurant",
    "address": "736, West 181st Street, New York, 10033, US",
    "lat": 40.8505785,
    "lng": -73.9376955,
    "phone": "+1-212-256-0701",
    "website": null,
    "source": "osm",
    "source_id": "11963618919",
    "search_term": "African restaurant",
    "country": "US",
    "city": "New York"
  },
  {
    "name": "Akara House",
    "type": "restaurant",
    "address": "US",
    "lat": 40.6764406,
    "lng": -73.9500418,
    "phone": null,
    "website": null,
    "source": "osm",
    "source_id": "12113605047",
    "search_term": "African restaurant",
    "country": "US",
    "city": "New York"
  },
  {
    "name": "Cafe Massawa",
    "type": "restaurant",
    "address": "3153, Broadway, New York, 10027, US",
    "lat": 40.8145806,
    "lng": -73.9594549,
    "phone": "+12126631800",
    "website": "https://www.cafemassawa.com/",
    "source": "osm",
    "source_id": "12118435378",
    "search_term": "African restaurant",
    "country": "US",
    "city": "New York"
  },
  {
    "name": "Big Jean Restaurant",
    "type": "restaurant",
    "address": "US",
    "lat": 40.6270817,
    "lng": -74.0778719,
    "phone": null,
    "website": null,
    "source": "osm",
    "source_id": "12445025715",
    "search_term": "African restaurant",
    "country": "US",
    "city": "New York"
  },
  {
    "name": "Chez Jacob",
    "type": "restaurant",
    "address": "US",
    "lat": 40.8151344,
    "lng": -73.9478027,
    "phone": "+12128623663",
    "website": null,
    "source": "osm",
    "source_id": "12662681901",
    "search_term": "African restaurant",
    "country": "US",
    "city": "New York"
  },
  {
    "name": "Peri Peri Grill House",
    "type": "restaurant",
    "address": "235, Malcolm X Boulevard, 11233, US",
    "lat": 40.684725,
    "lng": -73.9292431,
    "phone": "+1-917-966-8614",
    "website": "https://www.periperigh.com/",
    "source": "osm",
    "source_id": "13154434801",
    "search_term": "African restaurant",
    "country": "US",
    "city": "New York"
  },
  {
    "name": "Naija Bar & Grill",
    "type": "restaurant",
    "address": "US",
    "lat": 40.5984605,
    "lng": -74.0809074,
    "phone": null,
    "website": null,
    "source": "osm",
    "source_id": "13186767854",
    "search_term": "African restaurant",
    "country": "US",
    "city": "New York"
  },
  {
    "name": "Barb\u00e8s",
    "type": "restaurant",
    "address": "1300, Park Avenue, Hoboken, 07030, US",
    "lat": 40.752962,
    "lng": -74.0291519,
    "phone": "+1-201-610-1000",
    "website": "http://www.barbesrestaurant.com/",
    "source": "osm",
    "source_id": "13190717158",
    "search_term": "African restaurant",
    "country": "US",
    "city": "New York"
  },
  {
    "name": "CG's",
    "type": "restaurant",
    "address": "1306, Clinton Avenue, US",
    "lat": 40.7288596,
    "lng": -74.2366226,
    "phone": null,
    "website": null,
    "source": "osm",
    "source_id": "795415863",
    "search_term": "African restaurant",
    "country": "US",
    "city": "New York"
  },
  {
    "name": "Native Brooklyn",
    "type": "restaurant",
    "address": "509 Myrtle Ave, Brooklyn, NY 11205, USA",
    "lat": 40.693839499999996,
    "lng": -73.964522,
    "phone": "+1 718-875-0800",
    "website": null,
    "source": "google",
    "source_id": "ChIJc_1tbMJbwokRTThvAx8c5dc",
    "search_term": "West African restaurant",
    "country": "US",
    "city": "New York"
  },
  {
    "name": "d\u00f9nd\u00fa",
    "type": "restaurant",
    "address": "140 E 41st St, New York, NY 10017, USA",
    "lat": 40.7503629,
    "lng": -73.97613299999999,
    "phone": "+1 646-767-0100",
    "website": "http://www.eatdundu.com/",
    "source": "google",
    "source_id": "ChIJ6fVE7-dZwokRs36v832cIoc",
    "search_term": "West African restaurant",
    "country": "US",
    "city": "New York"
  },
  {
    "name": "Accra Express Restaurant",
    "type": "restaurant",
    "address": "63 E 125th St, New York, NY 10035, USA",
    "lat": 40.8057139,
    "lng": -73.9398894,
    "phone": "+1 646-964-4408",
    "website": "https://accraexpressny.com/",
    "source": "google",
    "source_id": "ChIJDQWflBL2wokRiLXCawXJJdU",
    "search_term": "West African restaurant",
    "country": "US",
    "city": "New York"
  },
  {
    "name": "Akwaaba Restaurant",
    "type": "restaurant",
    "address": "604 Parkside Ave, Brooklyn, NY 11226, USA",
    "lat": 40.6559409,
    "lng": -73.953322,
    "phone": "+1 347-985-2588",
    "website": null,
    "source": "google",
    "source_id": "ChIJw1u8XmlbwokRq8_uoYyOEsQ",
    "search_term": "West African restaurant",
    "country": "US",
    "city": "New York"
  },
  {
    "name": "Festac Grill & Lounge Inc",
    "type": "restaurant",
    "address": "263 Hendrix St #273, Brooklyn, NY 11207, USA",
    "lat": 40.675757999999995,
    "lng": -73.89000039999999,
    "phone": "+1 347-627-5151",
    "website": "http://festacnycny.com/",
    "source": "google",
    "source_id": "ChIJQQxl20xcwokR4zyFV_WZhvc",
    "search_term": "West African restaurant",
    "country": "US",
    "city": "New York"
  },
  {
    "name": "New Ivoire",
    "type": "restaurant",
    "address": "76 E 119th St, New York, NY 10035, USA",
    "lat": 40.8013833,
    "lng": -73.9423639,
    "phone": "+1 212-410-5982",
    "website": null,
    "source": "google",
    "source_id": "ChIJo2Tt1g72wokRXr1DbBNZ7YA",
    "search_term": "East African restaurant",
    "country": "US",
    "city": "New York"
  },
  {
    "name": "Chez Maty Et Sokhna (Keur Sokhna)",
    "type": "restaurant",
    "address": "2249 Adam Clayton Powell Jr Blvd, New York, NY 10027, USA",
    "lat": 40.8135225,
    "lng": -73.94470570000001,
    "phone": "+1 212-368-5005",
    "website": null,
    "source": "google",
    "source_id": "ChIJH_Y7KDiUwokR0ZWRv_LIjFk",
    "search_term": "East African restaurant",
    "country": "US",
    "city": "New York"
  },
  {
    "name": "DF Nigerian Food Truck",
    "type": "restaurant",
    "address": "828 2nd Ave, New York, NY 10017, USA",
    "lat": 40.7512178,
    "lng": -73.9707667,
    "phone": "+1 877-733-6443",
    "website": "http://www.dfnigerianfoodtruck.com/",
    "source": "google",
    "source_id": "ChIJZV9JKR1ZwokRaJ790YVnRAA",
    "search_term": "East African restaurant",
    "country": "US",
    "city": "New York"
  },
  {
    "name": "Brooklyn Suya",
    "type": "restaurant",
    "address": "717 Franklin Ave, Brooklyn, NY 11238, USA",
    "lat": 40.673983199999995,
    "lng": -73.9566476,
    "phone": "+1 718-513-0122",
    "website": "https://www.brooklynsuya.com/",
    "source": "google",
    "source_id": "ChIJLauqb4B8wokRwrSsm4hGNTM",
    "search_term": "Nigerian restaurant",
    "country": "US",
    "city": "New York"
  },
  {
    "name": "Nneji",
    "type": "restaurant",
    "address": "32-20 34th Ave, Astoria, NY 11106, USA",
    "lat": 40.758922999999996,
    "lng": -73.9259478,
    "phone": "+1 917-832-7338",
    "website": null,
    "source": "google",
    "source_id": "ChIJpa6hjNpfwokRoJ3lUZdnkUQ",
    "search_term": "Nigerian restaurant",
    "country": "US",
    "city": "New York"
  },
  {
    "name": "K\u00e1y\u1ecd\u0300d\u00e9 Restaurant Mirage",
    "type": "restaurant",
    "address": "563 E 26th St, Brooklyn, NY 11210, USA",
    "lat": 40.6368872,
    "lng": -73.9524346,
    "phone": "+1 347-240-2710",
    "website": "https://www.ubereats.com/store/kayode-restaurant/ukzRVpPWXy6nxR5h-8_FRQ?diningMode=DELIVERY&sc=SEARCH_SUGGESTION&fbclid=PAZXh0bgNhZW0CMTEAAaYhyEt5oDFVR46sKFWvyMabCbSCGMlrUFlw8T5NUY1ES2AiAfEUd5Ec3H4_aem_AV3a87xxeFLGx-fspXLMW8HgY-Ner4WjGYqYlcTCOIWzuZZgcMLVzrxXDXpzKpQ0hAcpgRafv2uQsBDc5rBwgmt1",
    "source": "google",
    "source_id": "ChIJ530uEgBbwokRF65dR01Q7U4",
    "search_term": "Nigerian restaurant",
    "country": "US",
    "city": "New York"
  },
  {
    "name": "B&D Halal Food",
    "type": "restaurant",
    "address": "263 W 30th St #3, New York, NY 10001, USA",
    "lat": 40.7495727,
    "lng": -73.99472039999999,
    "phone": "+1 212-268-7602",
    "website": "http://bdhalal.com/",
    "source": "google",
    "source_id": "ChIJOZIuwydZwokRZtyPAnQPSKc",
    "search_term": "Nigerian restaurant",
    "country": "US",
    "city": "New York"
  },
  {
    "name": "The Green Place",
    "type": "restaurant",
    "address": "180 Rockaway Ave, Brooklyn, NY 11233, USA",
    "lat": 40.6770189,
    "lng": -73.91106289999999,
    "phone": "+1 347-413-6957",
    "website": null,
    "source": "google",
    "source_id": "ChIJpaEXlUJcwokR6xfzeTYZC0A",
    "search_term": "Nigerian restaurant",
    "country": "US",
    "city": "New York"
  },
  {
    "name": "Accra",
    "type": "restaurant",
    "address": "2041 Davidson Ave, Bronx, NY 10453, USA",
    "lat": 40.8539619,
    "lng": -73.9085633,
    "phone": "+1 718-584-8500",
    "website": "https://accra-ny.shop/",
    "source": "google",
    "source_id": "ChIJV77dbnL0wokRewtTsKlO55M",
    "search_term": "Ghanaian restaurant",
    "country": "US",
    "city": "New York"
  },
  {
    "name": "Papaye",
    "type": "restaurant",
    "address": "2300 Grand Concourse, Bronx, NY 10458, USA",
    "lat": 40.857406999999995,
    "lng": -73.8995036,
    "phone": "+1 718-676-0771",
    "website": "http://papayenyc.com/",
    "source": "google",
    "source_id": "ChIJrc7R7Hn0wokR_Ty3B2dZNXY",
    "search_term": "Ghanaian restaurant",
    "country": "US",
    "city": "New York"
  },
  {
    "name": "Adom African Cuisine inc",
    "type": "restaurant",
    "address": "613 E Tremont Ave, Bronx, NY 10457, USA",
    "lat": 40.8463546,
    "lng": -73.89269600000002,
    "phone": "+1 718-294-0792",
    "website": "https://www.adomafricancuisineny.com/",
    "source": "google",
    "source_id": "ChIJK5ktwfX1wokRti-UhaEIHjQ",
    "search_term": "Ghanaian restaurant",
    "country": "US",
    "city": "New York"
  },
  {
    "name": "Asanka Local",
    "type": "restaurant",
    "address": "339 Lyons Ave, Newark, NJ 07112, USA",
    "lat": 40.7127754,
    "lng": -74.218825,
    "phone": "+1 973-873-3993",
    "website": "http://www.asankalocal.com/",
    "source": "google",
    "source_id": "ChIJU3aJl_atw4kRYbXXysEWfck",
    "search_term": "Ghanaian restaurant",
    "country": "US",
    "city": "New York"
  },
  {
    "name": "Cafe Rue Dix",
    "type": "restaurant",
    "address": "1451 Bedford Ave, Brooklyn, NY 11216, USA",
    "lat": 40.6735039,
    "lng": -73.95376259999999,
    "phone": "+1 929-234-2543",
    "website": "https://www.ruedixbrooklyn.com/",
    "source": "google",
    "source_id": "ChIJi1Iydp5bwokRpwUQu1NrOXM",
    "search_term": "Senegalese restaurant",
    "country": "US",
    "city": "New York"
  },
  {
    "name": "Le Baobab",
    "type": "restaurant",
    "address": "1235 Fulton St, Brooklyn, NY 11216, USA",
    "lat": 40.6806664,
    "lng": -73.9521469,
    "phone": "+1 718-484-4866",
    "website": "https://www.restaurantbaobab.com/",
    "source": "google",
    "source_id": "ChIJ1ZYlbZpbwokR3WWXmDFORic",
    "search_term": "Senegalese restaurant",
    "country": "US",
    "city": "New York"
  },
  {
    "name": "Des Ambassades",
    "type": "restaurant",
    "address": "2200 Frederick Douglass Blvd, New York, NY 10026, USA",
    "lat": 40.806001699999996,
    "lng": -73.9538384,
    "phone": "+1 212-666-0078",
    "website": "https://desambassades.shop/",
    "source": "google",
    "source_id": "ChIJ9cqZKXP2wokRlyhuzxOZs64",
    "search_term": "Senegalese restaurant",
    "country": "US",
    "city": "New York"
  },
  {
    "name": "Saint Louis Restaurant Keur Yayou Dara",
    "type": "restaurant",
    "address": "381 Lenox Ave, New York, NY 10027, USA",
    "lat": 40.810718,
    "lng": -73.94366149999999,
    "phone": "+1 212-877-6631",
    "website": "https://www.instagram.com/saintlouisrestaurant_/",
    "source": "google",
    "source_id": "ChIJQdns_aP3wokRBOTN5UN9zOo",
    "search_term": "Senegalese restaurant",
    "country": "US",
    "city": "New York"
  },
  {
    "name": "Mawo's Kitchen",
    "type": "restaurant",
    "address": "90 Monticello Ave, Jersey City, NJ 07304, USA",
    "lat": 40.7175995,
    "lng": -74.0720308,
    "phone": "+1 640-225-3002",
    "website": "https://www.mawoskitchen.com/",
    "source": "google",
    "source_id": "ChIJfTT8k01VwokRR3ogY8MX7dM",
    "search_term": "Senegalese restaurant",
    "country": "US",
    "city": "New York"
  },
  {
    "name": "Chez Alain",
    "type": "restaurant",
    "address": "2046 Adam Clayton Powell Jr Blvd, New York, NY 10027, USA",
    "lat": 40.807378299999996,
    "lng": -73.949931,
    "phone": "+1 212-678-7600",
    "website": "https://www.chezalainrestaurant.com/#/",
    "source": "google",
    "source_id": "ChIJIzxZ9xL2wokR0BQVqRJ6v9w",
    "search_term": "Senegalese restaurant",
    "country": "US",
    "city": "New York"
  },
  {
    "name": "Yopcity restaurant",
    "type": "restaurant",
    "address": "2324 Arthur Ave, Bronx, NY 10458, USA",
    "lat": 40.8538499,
    "lng": -73.888795,
    "phone": "+1 631-561-2518",
    "website": null,
    "source": "google",
    "source_id": "ChIJyfhM1If1wokRu402B8Yc0UM",
    "search_term": "Ivorian restaurant",
    "country": "US",
    "city": "New York"
  },
  {
    "name": "FTJ Rooftop Restaurant",
    "type": "restaurant",
    "address": "14p Smuila Town Freetown Sierra Leone (Back of Winners, Chapel Church, Freetown, Sierra Leone",
    "lat": 8.4739448,
    "lng": -13.234865,
    "phone": "+232 34 695341",
    "website": null,
    "source": "google",
    "source_id": "ChIJkyTxzcbDBA8RzMWHkqesGRQ",
    "search_term": "Sierra Leonean restaurant",
    "country": "US",
    "city": "New York"
  },
  {
    "name": "La Braise African Grill - Springfield",
    "type": "restaurant",
    "address": "247 Morris Ave, Springfield, NJ 07081, USA",
    "lat": 40.7109994,
    "lng": -74.31186699999999,
    "phone": "+1 973-379-4188",
    "website": "https://labraisegrill.com/",
    "source": "google",
    "source_id": "ChIJq6r633euw4kRgFRHO59Hpkw",
    "search_term": "Sierra Leonean restaurant",
    "country": "US",
    "city": "New York"
  },
  {
    "name": "LOR Restaurant",
    "type": "restaurant",
    "address": "Goderich Rd, Freetown, Sierra Leone",
    "lat": 8.449933099999999,
    "lng": -13.279045499999999,
    "phone": "+232 90 002000",
    "website": "https://lor-restaurant.rockcxi-con.com/lorrestaurant",
    "source": "google",
    "source_id": "ChIJlcPLvyvFBA8RDAZjvEjRpKU",
    "search_term": "Sierra Leonean restaurant",
    "country": "US",
    "city": "New York"
  },
  {
    "name": "Leo Restaurant & Cafe",
    "type": "restaurant",
    "address": "75 Lumley Beach Rd, Freetown, Sierra Leone",
    "lat": 8.4792112,
    "lng": -13.2848367,
    "phone": "+232 99 536536",
    "website": null,
    "source": "google",
    "source_id": "ChIJh22HTDTFBA8RWdYi-oGX5mA",
    "search_term": "Sierra Leonean restaurant",
    "country": "US",
    "city": "New York"
  },
  {
    "name": "Istanbul Restaurant & Bar",
    "type": "restaurant",
    "address": "Lumley Beach Rd, Freetown, Sierra Leone",
    "lat": 8.492125600000001,
    "lng": -13.292138699999999,
    "phone": "+232 30 067853",
    "website": null,
    "source": "google",
    "source_id": "ChIJG5N7UAzFBA8R1DHJ0rsRrww",
    "search_term": "Sierra Leonean restaurant",
    "country": "US",
    "city": "New York"
  },
  {
    "name": "Mamba Point Hotel Restaurant Lagoonda",
    "type": "restaurant",
    "address": "80 Cape Rd, Freetown, Sierra Leone",
    "lat": 8.4961734,
    "lng": -13.294379399999999,
    "phone": "+232 99 100100",
    "website": "https://mambapointhotel.inn.fan/",
    "source": "google",
    "source_id": "ChIJA2Q3Wj_EBA8ReTT6wvdrdlA",
    "search_term": "Sierra Leonean restaurant",
    "country": "US",
    "city": "New York"
  },
  {
    "name": "Papaya Restaurant",
    "type": "restaurant",
    "address": "FPR5+W6P, Freetown, Sierra Leone",
    "lat": 8.4923497,
    "lng": -13.2919251,
    "phone": null,
    "website": null,
    "source": "google",
    "source_id": "ChIJBeLapUHEBA8RL2ueaS6qlXQ",
    "search_term": "Sierra Leonean restaurant",
    "country": "US",
    "city": "New York"
  },
  {
    "name": "El Greco sl",
    "type": "restaurant",
    "address": "62 Sir Samuel road, Aberdeen, Sierra Leone",
    "lat": 8.4931663,
    "lng": -13.2768438,
    "phone": "+232 99 423234",
    "website": null,
    "source": "google",
    "source_id": "ChIJ134Kp07FBA8RmwAKOU1m06A",
    "search_term": "Sierra Leonean restaurant",
    "country": "US",
    "city": "New York"
  },
  {
    "name": "Brimelia Vegetarian Restaurant",
    "type": "restaurant",
    "address": "FPPQ+7P2, Freetown, Sierra Leone",
    "lat": 8.4856371,
    "lng": -13.2607264,
    "phone": "+232 34 438219",
    "website": null,
    "source": "google",
    "source_id": "ChIJl6ncn-vDBA8ReLfgZcLMR4U",
    "search_term": "Sierra Leonean restaurant",
    "country": "US",
    "city": "New York"
  },
  {
    "name": "Swan restaurant & Grill",
    "type": "restaurant",
    "address": "78A Cape road, Bintumani drive, Aberdeen, Freetown, Sierra Leone",
    "lat": 8.4945088,
    "lng": -13.2872088,
    "phone": "+232 30 222228",
    "website": "http://www.homesuiteshotelsl.com/",
    "source": "google",
    "source_id": "ChIJWVJQmuTFBA8RMzw-dLKtg8s",
    "search_term": "Sierra Leonean restaurant",
    "country": "US",
    "city": "New York"
  },
  {
    "name": "Basha Bakery & Restaurant",
    "type": "restaurant",
    "address": "73 Wilkinson Road, Freetown, Sierra Leone",
    "lat": 8.4782777,
    "lng": -13.272318499999999,
    "phone": "+232 76 611000",
    "website": "https://bashabakeryrestaurant.com/",
    "source": "google",
    "source_id": "ChIJjxGiLXzEBA8RqTvCjrk6bW0",
    "search_term": "Sierra Leonean restaurant",
    "country": "US",
    "city": "New York"
  },
  {
    "name": "Crown Xpress",
    "type": "restaurant",
    "address": "196 Wilkinson Road, Freetown, Sierra Leone",
    "lat": 8.4658023,
    "lng": -13.273532099999999,
    "phone": "+232 77 999444",
    "website": "http://www.crown-xpress.sl/",
    "source": "google",
    "source_id": "ChIJs0xTsITEBA8R_3yZxFUeDwI",
    "search_term": "Sierra Leonean restaurant",
    "country": "US",
    "city": "New York"
  },
  {
    "name": "Grand Leone sky bar",
    "type": "restaurant",
    "address": "72, A, 72a Cape Rd, Freetown, Sierra Leone",
    "lat": 8.4933591,
    "lng": -13.294143,
    "phone": "+232 88 088088",
    "website": null,
    "source": "google",
    "source_id": "ChIJF01iqWPFBA8R4N_GQ7F0d-U",
    "search_term": "Sierra Leonean restaurant",
    "country": "US",
    "city": "New York"
  },
  {
    "name": "LimeTree Bar and Restaurant, Freetown, Sierra Leone, West Africa",
    "type": "restaurant",
    "address": "FPMJ+2FC, Freetown, Sierra Leone",
    "lat": 8.482574,
    "lng": -13.268861,
    "phone": "+232 76 318169",
    "website": null,
    "source": "google",
    "source_id": "ChIJ3aowKQvFBA8RtCahnujMS_s",
    "search_term": "Sierra Leonean restaurant",
    "country": "US",
    "city": "New York"
  },
  {
    "name": "Lily's Restaurant & cafe",
    "type": "restaurant",
    "address": "Lumley beach road Freetown, 75 Lumley Beach Rd, Freetown, Sierra Leone",
    "lat": 8.4932255,
    "lng": -13.2759355,
    "phone": "+232 88 111100",
    "website": null,
    "source": "google",
    "source_id": "ChIJR4d4AYTFBA8RDr1XhRIAK-s",
    "search_term": "Sierra Leonean restaurant",
    "country": "US",
    "city": "New York"
  },
  {
    "name": "Olive's Garden",
    "type": "restaurant",
    "address": "Lumley Beach Rd, Freetown, Sierra, FPM7+84V, Leone, Sierra Leone",
    "lat": 8.4833574,
    "lng": -13.2872006,
    "phone": null,
    "website": null,
    "source": "google",
    "source_id": "ChIJAWSGsGfEBA8R81FdWamaDpk",
    "search_term": "Sierra Leonean restaurant",
    "country": "US",
    "city": "New York"
  },
  {
    "name": "Whatsapp Restaurant",
    "type": "restaurant",
    "address": "Bassa Town, 8WGM+JPQ, Waterloo, Sierra Leone",
    "lat": 8.32659,
    "lng": -13.065644599999999,
    "phone": "+232 78 122812",
    "website": null,
    "source": "google",
    "source_id": "ChIJ1-MYBRLjBA8RnndQnDXNOoQ",
    "search_term": "Sierra Leonean restaurant",
    "country": "US",
    "city": "New York"
  },
  {
    "name": "WanWanWan Bar & Restaurant",
    "type": "restaurant",
    "address": "22 Leicester, Peak Road By Samsumana Drive Junction, Freetown, Sierra Leone",
    "lat": 8.4479519,
    "lng": -13.2277971,
    "phone": "+232 75 223036",
    "website": null,
    "source": "google",
    "source_id": "ChIJ_wm2CdDDBA8RyWp6wVKuSZk",
    "search_term": "Sierra Leonean restaurant",
    "country": "US",
    "city": "New York"
  },
  {
    "name": "Roys Hotel & Restaurant",
    "type": "restaurant",
    "address": "54 Lumley Beach Rd, Freetown, Sierra Leone",
    "lat": 8.4795795,
    "lng": -13.2849886,
    "phone": "+232 79 655677",
    "website": "https://royshotel.info/",
    "source": "google",
    "source_id": "ChIJD9GISWHEBA8RPqt-T8r5aTg",
    "search_term": "Sierra Leonean restaurant",
    "country": "US",
    "city": "New York"
  },
  {
    "name": "Hadja Marley",
    "type": "restaurant",
    "address": "1139 Fulton St, Brooklyn, NY 11238, USA",
    "lat": 40.68138,
    "lng": -73.956178,
    "phone": "+1 718-636-7422",
    "website": null,
    "source": "google",
    "source_id": "ChIJGwwfzplbwokRj0wO8xjmFHg",
    "search_term": "Liberian restaurant",
    "country": "US",
    "city": "New York"
  },
  {
    "name": "Haile",
    "type": "restaurant",
    "address": "182 Avenue B #1, New York, NY 10009, USA",
    "lat": 40.7277979,
    "lng": -73.9794471,
    "phone": "+1 212-673-8949",
    "website": "http://hailecuisine.com/",
    "source": "google",
    "source_id": "ChIJ6V1F-3ZZwokRzgGGwicZh88",
    "search_term": "Ethiopian restaurant",
    "country": "US",
    "city": "New York"
  },
  {
    "name": "Awash Ethiopian Restaurant",
    "type": "restaurant",
    "address": "338 E 6th St, New York, NY 10003, USA",
    "lat": 40.726527,
    "lng": -73.986862,
    "phone": "+1 212-982-9589",
    "website": "https://awashny.com/",
    "source": "google",
    "source_id": "ChIJVcmPz5xZwokR3FOfOrxe81o",
    "search_term": "Ethiopian restaurant",
    "country": "US",
    "city": "New York"
  },
  {
    "name": "Lalibela Ethiopian Restaurant",
    "type": "restaurant",
    "address": "2084 Frederick Douglass Blvd, New York, NY 10026, USA",
    "lat": 40.8023294,
    "lng": -73.9566694,
    "phone": "+1 917-409-1609",
    "website": "http://lalibelany.com/",
    "source": "google",
    "source_id": "ChIJJ33UNlP3wokR1Z7i_m8zB-o",
    "search_term": "Ethiopian restaurant",
    "country": "US",
    "city": "New York"
  },
  {
    "name": "RAS Plant Based",
    "type": "restaurant",
    "address": "739 Franklin Ave, Brooklyn, NY 11238, USA",
    "lat": 40.6733958,
    "lng": -73.95669029999999,
    "phone": "+1 718-622-6220",
    "website": "http://www.rasplantbased.com/",
    "source": "google",
    "source_id": "ChIJC2cqQEhbwokRxC2JSiGx2Vw",
    "search_term": "Ethiopian restaurant",
    "country": "US",
    "city": "New York"
  },
  {
    "name": "Benyam",
    "type": "restaurant",
    "address": "2795 Frederick Douglass Blvd, New York, NY 10039, USA",
    "lat": 40.8252386,
    "lng": -73.94055250000001,
    "phone": "+1 212-510-7353",
    "website": "https://www.benyamcuisine.com/",
    "source": "google",
    "source_id": "ChIJJ3SGjH72wokRsTSk8NFNkAo",
    "search_term": "Ethiopian restaurant",
    "country": "US",
    "city": "New York"
  },
  {
    "name": "Bersi Ethiopian Restaurant",
    "type": "restaurant",
    "address": "1049 Manhattan Ave, Brooklyn, NY 11222, USA",
    "lat": 40.7346617,
    "lng": -73.9551437,
    "phone": "+1 347-335-0920",
    "website": "https://www.bersi.nyc/",
    "source": "google",
    "source_id": "ChIJVz93W-1ZwokRiyGvsbPtDRA",
    "search_term": "Ethiopian restaurant",
    "country": "US",
    "city": "New York"
  },
  {
    "name": "Awash",
    "type": "restaurant",
    "address": "242 Court St, Brooklyn, NY 11201, USA",
    "lat": 40.685764,
    "lng": -73.994475,
    "phone": "+1 718-243-2151",
    "website": "https://awashny.com/",
    "source": "google",
    "source_id": "ChIJIa_neVBawokRlGRk-3CZ1rM",
    "search_term": "Ethiopian restaurant",
    "country": "US",
    "city": "New York"
  },
  {
    "name": "Awaze",
    "type": "restaurant",
    "address": "2288 Frederick Douglass Blvd, New York, NY 10027, USA",
    "lat": 40.8087045,
    "lng": -73.9520254,
    "phone": "+1 917-639-3112",
    "website": "https://awaze.nyc/",
    "source": "google",
    "source_id": "ChIJMbUxIgb3wokR6sR3EPf4u4k",
    "search_term": "Ethiopian restaurant",
    "country": "US",
    "city": "New York"
  },
  {
    "name": "Awash Ethiopian Restaurant",
    "type": "restaurant",
    "address": "947 Amsterdam Ave, New York, NY 10025, USA",
    "lat": 40.800712,
    "lng": -73.965273,
    "phone": "+1 212-961-1416",
    "website": "https://awashny.com/",
    "source": "google",
    "source_id": "ChIJTxiNYCP2wokRz8bUSToPz-k",
    "search_term": "Ethiopian restaurant",
    "country": "US",
    "city": "New York"
  },
  {
    "name": "Addey Ababa",
    "type": "restaurant",
    "address": "736 W 181st St, New York, NY 10033, USA",
    "lat": 40.8505731,
    "lng": -73.9374615,
    "phone": "+1 212-256-0701",
    "website": "https://addeyababa.square.site/",
    "source": "google",
    "source_id": "ChIJt7Km4kT3wokR9MsYs70XF4A",
    "search_term": "Ethiopian restaurant",
    "country": "US",
    "city": "New York"
  },
  {
    "name": "Makina Cafe on Governor's Island",
    "type": "restaurant",
    "address": "Clayton Rd, Brooklyn, NY 1123, USA",
    "lat": 40.6903266,
    "lng": -74.0190392,
    "phone": null,
    "website": "http://www.makinacafenyc.com/",
    "source": "google",
    "source_id": "ChIJz5zmeQBbwokRJKu4Vb6bp4Q",
    "search_term": "Ethiopian restaurant",
    "country": "US",
    "city": "New York"
  },
  {
    "name": "Zoma Express",
    "type": "restaurant",
    "address": "973 Columbus Ave, New York, NY 10025, USA",
    "lat": 40.800264899999995,
    "lng": -73.9617583,
    "phone": "+1 646-370-6864",
    "website": "https://www.zomaexp.com/",
    "source": "google",
    "source_id": "ChIJlZEefAD3wokRBvjAj5vO1kA",
    "search_term": "Ethiopian restaurant",
    "country": "US",
    "city": "New York"
  },
  {
    "name": "Walia Ethiopian Restaurant",
    "type": "restaurant",
    "address": "11 Village Plaza, South Orange Village, NJ 07079, USA",
    "lat": 40.7454822,
    "lng": -74.25905449999999,
    "phone": "+1 973-762-2186",
    "website": "http://www.waliarestaurant.com/",
    "source": "google",
    "source_id": "ChIJmZFrCoasw4kRP8TTN-1B7Cg",
    "search_term": "Ethiopian restaurant",
    "country": "US",
    "city": "New York"
  },
  {
    "name": "Cafe Massawa",
    "type": "restaurant",
    "address": "3153 Broadway, New York, NY 10027, USA",
    "lat": 40.814620399999995,
    "lng": -73.9595628,
    "phone": "+1 212-663-1800",
    "website": "http://cafemassawa.com/",
    "source": "google",
    "source_id": "ChIJ0f1ZfAD3wokRrFaM7fjukko",
    "search_term": "Ethiopian restaurant",
    "country": "US",
    "city": "New York"
  },
  {
    "name": "Makina Eritrean-Ethiopian Eatery",
    "type": "restaurant",
    "address": "46-11 Skillman Ave, Sunnyside, NY 11104, USA",
    "lat": 40.7466788,
    "lng": -73.91769359999999,
    "phone": "+1 718-451-8005",
    "website": "https://makinacafenyc.com/",
    "source": "google",
    "source_id": "ChIJzeKudTJfwokRbIYfOfLKCZY",
    "search_term": "Ethiopian restaurant",
    "country": "US",
    "city": "New York"
  },
  {
    "name": "Salimata",
    "type": "restaurant",
    "address": "62 E 116th St, New York, NY 10029, USA",
    "lat": 40.799574899999996,
    "lng": -73.94424599999999,
    "phone": "+1 212-860-3900",
    "website": null,
    "source": "google",
    "source_id": "ChIJBXuAeg_2wokRXoCiVYTev9c",
    "search_term": "Sudanese restaurant",
    "country": "US",
    "city": "New York"
  },
  {
    "name": "Sudanese American Society",
    "type": "restaurant",
    "address": "569 Hicks St, Brooklyn, NY 11231, USA",
    "lat": 40.6835727,
    "lng": -74.00133559999999,
    "phone": "+1 718-488-0741",
    "website": null,
    "source": "google",
    "source_id": "ChIJiQapAlxawokRRN-YhrQuNXs",
    "search_term": "Sudanese restaurant",
    "country": "US",
    "city": "New York"
  },
  {
    "name": "Brooklyn Suya PLG",
    "type": "restaurant",
    "address": "706 Rogers Ave, Brooklyn, NY 11226, USA",
    "lat": 40.6542697,
    "lng": -73.9530084,
    "phone": "+1 347-365-8153",
    "website": null,
    "source": "google",
    "source_id": "ChIJWY1Gg9RbwokRhLXm2PMrm4c",
    "search_term": "Sudanese restaurant",
    "country": "US",
    "city": "New York"
  },
  {
    "name": "The Soul Spot",
    "type": "restaurant",
    "address": "302 Atlantic Ave, Brooklyn, NY 11201, USA",
    "lat": 40.688327099999995,
    "lng": -73.9888261,
    "phone": "+1 718-596-9933",
    "website": "http://www.soulspotrestaurant.com/",
    "source": "google",
    "source_id": "ChIJua292E1awokRtj7K3ujLMLc",
    "search_term": "Sudanese restaurant",
    "country": "US",
    "city": "New York"
  },
  {
    "name": "Hafiya Restaurant",
    "type": "restaurant",
    "address": "1639 Bedford Ave, Brooklyn, NY 11225, USA",
    "lat": 40.6664916,
    "lng": -73.95643129999999,
    "phone": "+1 347-770-8777",
    "website": null,
    "source": "google",
    "source_id": "ChIJ54zQxhdbwokRwSn7pNtqolA",
    "search_term": "Sudanese restaurant",
    "country": "US",
    "city": "New York"
  },
  {
    "name": "Grin",
    "type": "restaurant",
    "address": "454 E 168th St Unit 44, Bronx, NY 10456, USA",
    "lat": 40.8314233,
    "lng": -73.9074778,
    "phone": "+1 718-292-8764",
    "website": null,
    "source": "google",
    "source_id": "ChIJh7k5xUj0wokR3vV_w_dbZ4k",
    "search_term": "Sudanese restaurant",
    "country": "US",
    "city": "New York"
  },
  {
    "name": "FARIDA - Finest World Dishes",
    "type": "restaurant",
    "address": "32 Cedar St, New York, NY 10005, USA",
    "lat": 40.707124199999996,
    "lng": -74.0083922,
    "phone": "+1 646-650-3272",
    "website": "https://www.farida.us/",
    "source": "google",
    "source_id": "ChIJT6iakMdbwokRr7eIzot7L5Y",
    "search_term": "Sudanese restaurant",
    "country": "US",
    "city": "New York"
  },
  {
    "name": "Aden",
    "type": "restaurant",
    "address": "24-42 Steinway St, Astoria, NY 11103, USA",
    "lat": 40.7682171,
    "lng": -73.91185949999999,
    "phone": "+1 718-777-3131",
    "website": null,
    "source": "google",
    "source_id": "ChIJ19dscmpfwokRDOT44dUVfaA",
    "search_term": "Sudanese restaurant",
    "country": "US",
    "city": "New York"
  },
  {
    "name": "A True Taste Of Kenya",
    "type": "restaurant",
    "address": "2 Center St Suite #174, Newark, NJ 07102, USA",
    "lat": 40.7390577,
    "lng": -74.1670494,
    "phone": "+1 973-494-7379",
    "website": "https://www.swahilivillages.com/newark",
    "source": "google",
    "source_id": "ChIJCxPBHYFTwokRf4uL7wkCpqc",
    "search_term": "Kenyan restaurant",
    "country": "US",
    "city": "New York"
  },
  {
    "name": "Berber Street Food",
    "type": "restaurant",
    "address": "100 Pearl St, New York, NY 10004, USA",
    "lat": 40.7042542,
    "lng": -74.0097092,
    "phone": "+1 917-902-2979",
    "website": "https://berberstreetfood.com/",
    "source": "google",
    "source_id": "ChIJqfQcVSBZwokREe4gnU3TVOY",
    "search_term": "Kenyan restaurant",
    "country": "US",
    "city": "New York"
  },
  {
    "name": "Mamakulu African Cuisine",
    "type": "restaurant",
    "address": "316 14th Ave, Newark, NJ 07103, USA",
    "lat": 40.740225599999995,
    "lng": -74.2066889,
    "phone": "+1 862-236-8872",
    "website": null,
    "source": "google",
    "source_id": "ChIJQ_5fg_xTwokRxh7S6OID4Hg",
    "search_term": "Kenyan restaurant",
    "country": "US",
    "city": "New York"
  },
  {
    "name": "Eko Suya Spot",
    "type": "restaurant",
    "address": "3678 White Plains Rd, Bronx, NY 10467, USA",
    "lat": 40.8810619,
    "lng": -73.8639144,
    "phone": "+1 929-222-4173",
    "website": "https://ekosuyaspot.com/",
    "source": "google",
    "source_id": "ChIJPUA-h1_zwokRZdTUqkCiJ6U",
    "search_term": "Kenyan restaurant",
    "country": "US",
    "city": "New York"
  },
  {
    "name": "Asante's Restaurant",
    "type": "restaurant",
    "address": "1280 Teaneck Rd, Teaneck, NJ 07666, USA",
    "lat": 40.896660999999995,
    "lng": -74.0013214,
    "phone": "+1 201-994-4404",
    "website": "https://asanteteaneck.com/",
    "source": "google",
    "source_id": "ChIJodZuA-rwwokRckFdrhBx7nE",
    "search_term": "Kenyan restaurant",
    "country": "US",
    "city": "New York"
  },
  {
    "name": "Cafe Mogador",
    "type": "restaurant",
    "address": "101 St Marks Pl, New York, NY 10009, USA",
    "lat": 40.7274314,
    "lng": -73.98431149999999,
    "phone": "+1 212-677-2226",
    "website": "http://cafemogador.com/",
    "source": "google",
    "source_id": "ChIJK48-E51ZwokRvAA-v6fx9y0",
    "search_term": "Moroccan restaurant",
    "country": "US",
    "city": "New York"
  },
  {
    "name": "Ayah Restaurant",
    "type": "restaurant",
    "address": "77 W Houston St, New York, NY 10012, USA",
    "lat": 40.7265753,
    "lng": -73.9998614,
    "phone": "+1 212-501-8900",
    "website": "https://www.ayahrestaurant.com/",
    "source": "google",
    "source_id": "ChIJr_ZXGrVZwokRuD9Z_NZFIhw",
    "search_term": "Moroccan restaurant",
    "country": "US",
    "city": "New York"
  },
  {
    "name": "Tara Kitchen Tribeca",
    "type": "restaurant",
    "address": "253 Church St, New York, NY 10013, USA",
    "lat": 40.717868599999996,
    "lng": -74.0053451,
    "phone": "+1 212-226-4400",
    "website": "http://tarakitchentribeca.com/",
    "source": "google",
    "source_id": "ChIJoz4wBFFbwokRpkJ9fa2n4i8",
    "search_term": "Moroccan restaurant",
    "country": "US",
    "city": "New York"
  },
  {
    "name": "Zerza Mediterrano",
    "type": "restaurant",
    "address": "88 Essex St, New York, NY 10002, USA",
    "lat": 40.7179417,
    "lng": -73.9882391,
    "phone": "+1 646-490-4074",
    "website": "http://www.zerzany.com/",
    "source": "google",
    "source_id": "ChIJN4tQRExZwokRxJDkc7_g5yU",
    "search_term": "Moroccan restaurant",
    "country": "US",
    "city": "New York"
  },
  {
    "name": "Moroccan Bites by Siham",
    "type": "restaurant",
    "address": "28-44 Steinway St, Astoria, NY 11103, USA",
    "lat": 40.7644942,
    "lng": -73.91470199999999,
    "phone": "+1 929-339-4554",
    "website": null,
    "source": "google",
    "source_id": "ChIJ0ah9hnBfwokRKvTsEz7YQjc",
    "search_term": "Moroccan restaurant",
    "country": "US",
    "city": "New York"
  },
  {
    "name": "Dar Lbahja",
    "type": "restaurant",
    "address": "47-12 30th Ave., Astoria, NY 11103, USA",
    "lat": 40.7609218,
    "lng": -73.9090636,
    "phone": "+1 347-242-3702",
    "website": null,
    "source": "google",
    "source_id": "ChIJvSQnKgBfwokRh3-LDnkYgW4",
    "search_term": "Moroccan restaurant",
    "country": "US",
    "city": "New York"
  },
  {
    "name": "Barb\u00e8s",
    "type": "restaurant",
    "address": "1300 Park Ave, Hoboken, NJ 07030, USA",
    "lat": 40.7529884,
    "lng": -74.0292549,
    "phone": "+1 201-610-1000",
    "website": "http://www.barbesrestaurant.com/",
    "source": "google",
    "source_id": "ChIJq6oG6NdZwokRrTiSh4hQabg",
    "search_term": "Moroccan restaurant",
    "country": "US",
    "city": "New York"
  },
  {
    "name": "Zou Zou\u2019s",
    "type": "restaurant",
    "address": "385 9th Ave Suite 85, New York, NY 10001, USA",
    "lat": 40.7529706,
    "lng": -73.9986785,
    "phone": "+1 212-380-8585",
    "website": "http://www.zouzousnyc.com/",
    "source": "google",
    "source_id": "ChIJKVbn75VZwokRLdlBWe5rbtU",
    "search_term": "Moroccan restaurant",
    "country": "US",
    "city": "New York"
  },
  {
    "name": "Cafe Mogador",
    "type": "restaurant",
    "address": "133 Wythe Ave, Brooklyn, NY 11249, USA",
    "lat": 40.7197416,
    "lng": -73.9599664,
    "phone": "+1 718-486-9222",
    "website": "http://www.cafemogador.com/",
    "source": "google",
    "source_id": "ChIJN5X_gWdZwokRck9rk2guJ1M",
    "search_term": "Moroccan restaurant",
    "country": "US",
    "city": "New York"
  },
  {
    "name": "Casa La Femme",
    "type": "restaurant",
    "address": "140 Charles St, New York, NY 10014, USA",
    "lat": 40.733945399999996,
    "lng": -74.0081223,
    "phone": "+1 212-505-0005",
    "website": "http://www.casalafemmeny.com/",
    "source": "google",
    "source_id": "ChIJ4zP6YOtZwokRqTzjf2iPmfI",
    "search_term": "Moroccan restaurant",
    "country": "US",
    "city": "New York"
  },
  {
    "name": "Little Morocco",
    "type": "restaurant",
    "address": "24-39 Steinway St, Astoria, NY 11103, USA",
    "lat": 40.7680103,
    "lng": -73.91146669999999,
    "phone": "+1 718-440-9193",
    "website": "https://www.littlemorocco.getsauce.com/",
    "source": "google",
    "source_id": "ChIJMV_ubmpfwokR3P-iT6Cfn6I",
    "search_term": "Moroccan restaurant",
    "country": "US",
    "city": "New York"
  },
  {
    "name": "Marakesh Restaurant",
    "type": "restaurant",
    "address": "321 US-46, Parsippany, NJ 07054, USA",
    "lat": 40.8586387,
    "lng": -74.3587357,
    "phone": "+1 973-808-0062",
    "website": "http://marakeshnj.com/",
    "source": "google",
    "source_id": "ChIJadLF2XcHw4kR4zX4en4cBIE",
    "search_term": "Moroccan restaurant",
    "country": "US",
    "city": "New York"
  },
  {
    "name": "Shoo Shoo Nolita",
    "type": "restaurant",
    "address": "371 Broome St, New York, NY 10013, USA",
    "lat": 40.720053,
    "lng": -73.9962548,
    "phone": "+1 646-590-6800",
    "website": "http://shooshoonyc.com/",
    "source": "google",
    "source_id": "ChIJYxIsQeZZwokRaw14pa1xNPA",
    "search_term": "Moroccan restaurant",
    "country": "US",
    "city": "New York"
  },
  {
    "name": "Oasis Restaurant",
    "type": "restaurant",
    "address": "21 N Union Ave, Cranford, NJ 07016, USA",
    "lat": 40.656375600000004,
    "lng": -74.3040585,
    "phone": "+1 908-967-6161",
    "website": "https://www.oasisrestaurantnj.com/",
    "source": "google",
    "source_id": "ChIJyyK1UJ2zw4kR3sm8Oj4sYgE",
    "search_term": "Moroccan restaurant",
    "country": "US",
    "city": "New York"
  },
  {
    "name": "Shukette",
    "type": "restaurant",
    "address": "230 9th Ave, New York, NY 10001, USA",
    "lat": 40.747154599999995,
    "lng": -74.0005218,
    "phone": "+1 212-242-1803",
    "website": "http://www.shukettenyc.com/",
    "source": "google",
    "source_id": "ChIJuabZo6hZwokRhGPoGjo0H6k",
    "search_term": "Moroccan restaurant",
    "country": "US",
    "city": "New York"
  },
  {
    "name": "Little Rascal",
    "type": "restaurant",
    "address": "163 Elizabeth St, New York, NY 10012, USA",
    "lat": 40.7208458,
    "lng": -73.99502009999999,
    "phone": "+1 212-966-0446",
    "website": "http://littlerascalrestaurant.com/",
    "source": "google",
    "source_id": "ChIJL8FQnohZwokRtuZZu_mQ_xI",
    "search_term": "Moroccan restaurant",
    "country": "US",
    "city": "New York"
  },
  {
    "name": "Salam",
    "type": "restaurant",
    "address": "104 W 13th St, New York, NY 10011, USA",
    "lat": 40.7368111,
    "lng": -73.9979316,
    "phone": "+1 212-741-0277",
    "website": null,
    "source": "google",
    "source_id": "ChIJ1RDNM5ZZwokRvA50sB0jakY",
    "search_term": "Moroccan restaurant",
    "country": "US",
    "city": "New York"
  },
  {
    "name": "Frena",
    "type": "restaurant",
    "address": "773 10th Ave, New York, NY 10019, USA",
    "lat": 40.7662319,
    "lng": -73.9910064,
    "phone": "+1 646-503-1464",
    "website": "https://www.frena.nyc/",
    "source": "google",
    "source_id": "ChIJr3bl85xZwokRNDl0Rq7wsT4",
    "search_term": "Moroccan restaurant",
    "country": "US",
    "city": "New York"
  },
  {
    "name": "Barbounia",
    "type": "restaurant",
    "address": "250 Park Ave S, New York, NY 10003, USA",
    "lat": 40.7383263,
    "lng": -73.9880646,
    "phone": "+1 212-995-0242",
    "website": "https://barbounia.com/",
    "source": "google",
    "source_id": "ChIJafcWm6FZwokRAD6WiHiQdpE",
    "search_term": "Moroccan restaurant",
    "country": "US",
    "city": "New York"
  },
  {
    "name": "19 Cleveland",
    "type": "restaurant",
    "address": "19 Cleveland Pl, New York, NY 10012, USA",
    "lat": 40.721596399999996,
    "lng": -73.9970748,
    "phone": "+1 914-825-4793",
    "website": "https://19cleveland.com/",
    "source": "google",
    "source_id": "ChIJeSJsgABZwokR7nRDFom6YKg",
    "search_term": "Tunisian restaurant",
    "country": "US",
    "city": "New York"
  },
  {
    "name": "Taboonette",
    "type": "restaurant",
    "address": "30 E 13th St, New York, NY 10003, USA",
    "lat": 40.7346073,
    "lng": -73.9928231,
    "phone": "+1 212-510-7881",
    "website": "http://www.taboonettenyc.com/",
    "source": "google",
    "source_id": "ChIJN5nlTphZwokR7RA6DCX141Q",
    "search_term": "Tunisian restaurant",
    "country": "US",
    "city": "New York"
  },
  {
    "name": "Au Za'atar - East Village",
    "type": "restaurant",
    "address": "188 Avenue A, New York, NY 10009, USA",
    "lat": 40.7289046,
    "lng": -73.98117239999999,
    "phone": "+1 212-254-5660",
    "website": "http://www.auzaatar.com/",
    "source": "google",
    "source_id": "ChIJ7bngQXZZwokRQtaUAwUwyJA",
    "search_term": "Tunisian restaurant",
    "country": "US",
    "city": "New York"
  },
  {
    "name": "Bustan NYC",
    "type": "restaurant",
    "address": "487 Amsterdam Ave, New York, NY 10024, USA",
    "lat": 40.785899799999996,
    "lng": -73.97595199999999,
    "phone": "+1 212-595-5050",
    "website": "http://www.bustannyc.com/",
    "source": "google",
    "source_id": "ChIJk_8RzIVYwokR99bOICh18j8",
    "search_term": "Tunisian restaurant",
    "country": "US",
    "city": "New York"
  },
  {
    "name": "Dagon",
    "type": "restaurant",
    "address": "2454 Broadway, New York, NY 10024, USA",
    "lat": 40.791271099999996,
    "lng": -73.9738886,
    "phone": "+1 212-873-2466",
    "website": "https://dagonnyc.com/",
    "source": "google",
    "source_id": "ChIJS0y1_oJYwokRp1XiiN58wKA",
    "search_term": "Tunisian restaurant",
    "country": "US",
    "city": "New York"
  },
  {
    "name": "Sami & Susu",
    "type": "restaurant",
    "address": "190 Orchard St, New York, NY 10002, USA",
    "lat": 40.7220866,
    "lng": -73.9879939,
    "phone": "+1 646-559-2856",
    "website": "http://samiandsusu.com/",
    "source": "google",
    "source_id": "ChIJRbqLkqFZwokR3E6d0zDKAko",
    "search_term": "Tunisian restaurant",
    "country": "US",
    "city": "New York"
  },
  {
    "name": "12 Chairs Cafe",
    "type": "restaurant",
    "address": "56 MacDougal St, New York, NY 10012, USA",
    "lat": 40.7275314,
    "lng": -74.002288,
    "phone": "+1 212-254-8640",
    "website": "https://12chairscafe.com/",
    "source": "google",
    "source_id": "ChIJbZsGko1ZwokR_Q1lznmBuU8",
    "search_term": "Tunisian restaurant",
    "country": "US",
    "city": "New York"
  },
  {
    "name": "Shuka",
    "type": "restaurant",
    "address": "38 MacDougal St, New York, NY 10012, USA",
    "lat": 40.7270639,
    "lng": -74.0027877,
    "phone": "+1 212-475-7500",
    "website": "http://www.shukanewyork.com/",
    "source": "google",
    "source_id": "ChIJ3dbcl41ZwokRouIrXtQ5erk",
    "search_term": "Tunisian restaurant",
    "country": "US",
    "city": "New York"
  },
  {
    "name": "La Baraka",
    "type": "restaurant",
    "address": "255-09 Northern Blvd, Little Neck, NY 11362, USA",
    "lat": 40.772357899999996,
    "lng": -73.734425,
    "phone": "+1 718-428-1461",
    "website": "http://www.labarakarest.com/",
    "source": "google",
    "source_id": "ChIJmf02Qe6JwokRSuKrC18NEQU",
    "search_term": "Tunisian restaurant",
    "country": "US",
    "city": "New York"
  },
  {
    "name": "Uncle Momo",
    "type": "restaurant",
    "address": "289 Grove St, Jersey City, NJ 07302, USA",
    "lat": 40.7183382,
    "lng": -74.0438782,
    "phone": "+1 201-360-3914",
    "website": "http://unclemomojc.com/",
    "source": "google",
    "source_id": "ChIJnxnLkLFQwokR47Jl5bu5dvU",
    "search_term": "Tunisian restaurant",
    "country": "US",
    "city": "New York"
  },
  {
    "name": "Jack's Wife Freda",
    "type": "restaurant",
    "address": "226 Lafayette St, New York, NY 10012, USA",
    "lat": 40.7221696,
    "lng": -73.99746019999999,
    "phone": "+1 212-510-8550",
    "website": "https://jackswifefreda.com/",
    "source": "google",
    "source_id": "ChIJA4i114hZwokRaqeyrmI80x0",
    "search_term": "Tunisian restaurant",
    "country": "US",
    "city": "New York"
  },
  {
    "name": "Balaboosta",
    "type": "restaurant",
    "address": "611 Hudson St, New York, NY 10014, USA",
    "lat": 40.737673300000004,
    "lng": -74.00588929999999,
    "phone": "+1 212-390-1545",
    "website": "http://www.balaboostanyc.com/",
    "source": "google",
    "source_id": "ChIJ63HXyYhZwokRHzL3PhUfs8s",
    "search_term": "Tunisian restaurant",
    "country": "US",
    "city": "New York"
  },
  {
    "name": "Simple",
    "type": "restaurant",
    "address": "346 Bedford Ave, Brooklyn, NY 11249, USA",
    "lat": 40.7124405,
    "lng": -73.962761,
    "phone": "+1 347-277-5179",
    "website": "https://www.simplecafenyc.com/",
    "source": "google",
    "source_id": "ChIJVfgMf99bwokR6ehjTR5avnE",
    "search_term": "Algerian restaurant",
    "country": "US",
    "city": "New York"
  },
  {
    "name": "Marmeta Restaurant",
    "type": "restaurant",
    "address": "479 73rd St, Brooklyn, NY 11209, USA",
    "lat": 40.6312785,
    "lng": -74.0223323,
    "phone": "+1 347-492-0670",
    "website": "https://mermetaalgerianrestaurant.com/",
    "source": "google",
    "source_id": "ChIJraaejGdFwokRzdfsEDR6F3U",
    "search_term": "Algerian restaurant",
    "country": "US",
    "city": "New York"
  },
  {
    "name": "The Kasbah Caf\u00e9",
    "type": "restaurant",
    "address": "39-19 Greenpoint Ave, Sunnyside, NY 11104, USA",
    "lat": 40.7389851,
    "lng": -73.9266736,
    "phone": "+1 347-617-1116",
    "website": "https://thekasbahcafe.com/",
    "source": "google",
    "source_id": "ChIJZbXi7g1fwokRI7aPpYIe834",
    "search_term": "Algerian restaurant",
    "country": "US",
    "city": "New York"
  },
  {
    "name": "FOODZ",
    "type": "restaurant",
    "address": "588 West Side Ave, Jersey City, NJ 07304, USA",
    "lat": 40.7211339,
    "lng": -74.080964,
    "phone": "+1 551-225-6839",
    "website": null,
    "source": "google",
    "source_id": "ChIJ6_WBx5xRwokRv47UhaKjXPc",
    "search_term": "Algerian restaurant",
    "country": "US",
    "city": "New York"
  },
  {
    "name": "AMLU",
    "type": "restaurant",
    "address": "38-12 30th Ave., Astoria, NY 11103, USA",
    "lat": 40.7639454,
    "lng": -73.9154873,
    "phone": "+1 347-242-2033",
    "website": null,
    "source": "google",
    "source_id": "ChIJzdY1B2hfwokRqFWZOQ_l_10",
    "search_term": "Algerian restaurant",
    "country": "US",
    "city": "New York"
  },
  {
    "name": "Salma",
    "type": "restaurant",
    "address": "351 E 12th St, New York, NY 10003, USA",
    "lat": 40.730246099999995,
    "lng": -73.9838212,
    "phone": "+1 917-261-4907",
    "website": "https://www.salmaeastvillage.com/?utm_source=GMB&utm_medium=Website%20button&utm_id=Salma%20Lebanese%20Restaurant",
    "source": "google",
    "source_id": "ChIJZ6SPJrFZwokRwUTV4IasNdE",
    "search_term": "Algerian restaurant",
    "country": "US",
    "city": "New York"
  },
  {
    "name": "Alfagieh Hassan",
    "type": "restaurant",
    "address": "172 Atlantic Ave, Brooklyn, NY 11201, USA",
    "lat": 40.6898184,
    "lng": -73.9938774,
    "phone": "+1 718-772-7246",
    "website": null,
    "source": "google",
    "source_id": "ChIJO9cxdk9awokRGknxArsBVFQ",
    "search_term": "Algerian restaurant",
    "country": "US",
    "city": "New York"
  },
  {
    "name": "Cozy Hookah Cafe",
    "type": "restaurant",
    "address": "43 E 1st St, New York, NY 10003, USA",
    "lat": 40.723766999999995,
    "lng": -73.99002,
    "phone": "+1 917-406-1945",
    "website": "http://cozycafenyc.org/",
    "source": "google",
    "source_id": "ChIJU6NEYYRZwokRGgZp_5pjNP0",
    "search_term": "Algerian restaurant",
    "country": "US",
    "city": "New York"
  },
  {
    "name": "Yassine Cuisine",
    "type": "restaurant",
    "address": "5 Tudor City Pl, New York, NY 10017, USA",
    "lat": 40.7479568,
    "lng": -73.9709044,
    "phone": "+1 914-233-3667",
    "website": null,
    "source": "google",
    "source_id": "ChIJHc3SCiNZwokR4MttIVsgtQk",
    "search_term": "Algerian restaurant",
    "country": "US",
    "city": "New York"
  },
  {
    "name": "Amazigh Food Truck",
    "type": "restaurant",
    "address": "114 W 41st St, New York, NY 10036, USA",
    "lat": 40.7544099,
    "lng": -73.98560359999999,
    "phone": "+1 347-935-9807",
    "website": "https://amazighfoodtruck.com/",
    "source": "google",
    "source_id": "ChIJuWrFzDNfwokRTHjj-hQlgaQ",
    "search_term": "Algerian restaurant",
    "country": "US",
    "city": "New York"
  },
  {
    "name": "Aria Hell's Kitchen",
    "type": "restaurant",
    "address": "369 W 51st St, New York, NY 10019, USA",
    "lat": 40.7641211,
    "lng": -73.9881841,
    "phone": "+1 212-541-9241",
    "website": "https://ariawinebar.com/",
    "source": "google",
    "source_id": "ChIJIWLdOldYwokROdK1xyMhYBo",
    "search_term": "South African restaurant",
    "country": "US",
    "city": "New York"
  },
  {
    "name": "LELABAR",
    "type": "restaurant",
    "address": "422 Hudson St, New York, NY 10014, USA",
    "lat": 40.730384,
    "lng": -74.006554,
    "phone": "+1 212-206-0594",
    "website": "http://www.lelabar.com/",
    "source": "google",
    "source_id": "ChIJ5X5PM-1ZwokRqc7NcYmU65M",
    "search_term": "South African restaurant",
    "country": "US",
    "city": "New York"
  },
  {
    "name": "Keita West African Market",
    "type": "grocery_store",
    "address": "1225 Broadway, Brooklyn, NY 11221, USA",
    "lat": 40.6919779,
    "lng": -73.9259924,
    "phone": "+1 718-602-2099",
    "website": "https://linktr.ee/Keitawestafricanmkt",
    "source": "google",
    "source_id": "ChIJOU1lLQxcwokREpz-WPgDWP4",
    "search_term": "African grocery",
    "country": "US",
    "city": "New York"
  },
  {
    "name": "OWA Afrikan Market",
    "type": "grocery_store",
    "address": "1666 Broadway, Brooklyn, NY 11207, USA",
    "lat": 40.6841833,
    "lng": -73.91321219999999,
    "phone": "+1 718-643-8487",
    "website": "http://owaafrikanmarket.com/",
    "source": "google",
    "source_id": "ChIJS6rah7hbwokRJuXPgNDO5qY",
    "search_term": "African grocery",
    "country": "US",
    "city": "New York"
  },
  {
    "name": "Malcolm Shabazz Harlem Market",
    "type": "grocery_store",
    "address": "52 W 116th St, New York, NY 10026, USA",
    "lat": 40.801344199999996,
    "lng": -73.948878,
    "phone": null,
    "website": "http://www.facebook.com/malcolmshabazzharlem",
    "source": "google",
    "source_id": "ChIJhdF9TRD2wokROv6jKsY9UDs",
    "search_term": "African grocery",
    "country": "US",
    "city": "New York"
  },
  {
    "name": "Legacy Africana Market Inc.",
    "type": "grocery_store",
    "address": "651 Bay St, Staten Island, NY 10304, USA",
    "lat": 40.6261222,
    "lng": -74.0751166,
    "phone": "+1 718-876-6695",
    "website": "http://legacy-africana.myshopify.com/",
    "source": "google",
    "source_id": "ChIJsxQ3krRPwokRiDeYm28C0ao",
    "search_term": "African grocery",
    "country": "US",
    "city": "New York"
  },
  {
    "name": "Eddie's Place African Market",
    "type": "grocery_store",
    "address": "5 E 167th St, Bronx, NY 10452, USA",
    "lat": 40.8360974,
    "lng": -73.9218866,
    "phone": "+1 718-293-5668",
    "website": "https://www.eddiesplaceafricanmarketnyc.com/",
    "source": "google",
    "source_id": "ChIJ49G1jzr0wokRhBRt3ufVmFI",
    "search_term": "African grocery",
    "country": "US",
    "city": "New York"
  },
  {
    "name": "AFRICARIB BAZAAR MARKET",
    "type": "grocery_store",
    "address": "114-52 Merrick Blvd, Jamaica, NY 11434, USA",
    "lat": 40.690135,
    "lng": -73.778486,
    "phone": "+1 718-581-9311",
    "website": "http://breathdynamic.com/",
    "source": "google",
    "source_id": "ChIJ29WPzWxhwokRAa7c8YXPrxc",
    "search_term": "African grocery",
    "country": "US",
    "city": "New York"
  },
  {
    "name": "African & Caribbean Market",
    "type": "grocery_store",
    "address": "403 W 145th St, New York, NY 10031, USA",
    "lat": 40.8243309,
    "lng": -73.9450718,
    "phone": "+1 212-234-2793",
    "website": null,
    "source": "google",
    "source_id": "ChIJOQsFhnz2wokRtqVkz_2QNsg",
    "search_term": "African grocery",
    "country": "US",
    "city": "New York"
  },
  {
    "name": "A B International Market",
    "type": "grocery_store",
    "address": "2235 Jerome Ave, Bronx, NY 10453, USA",
    "lat": 40.8577198,
    "lng": -73.9046783,
    "phone": "+1 718-584-2788",
    "website": null,
    "source": "google",
    "source_id": "ChIJQY8YM3H0wokRB_-iTSOsvtc",
    "search_term": "African grocery",
    "country": "US",
    "city": "New York"
  },
  {
    "name": "African market keur Sokhna Diarra",
    "type": "grocery_store",
    "address": "387 Nostrand Ave, Brooklyn, NY 11216, USA",
    "lat": 40.6845284,
    "lng": -73.9501837,
    "phone": "+1 929-234-3982",
    "website": "https://www.instagram.com/diagne0002?igsh=c21vMmlxNDc0M2lz&utm_source=qr",
    "source": "google",
    "source_id": "ChIJg2UoodxbwokRikJtU3Xg6Jk",
    "search_term": "African grocery",
    "country": "US",
    "city": "New York"
  },
  {
    "name": "Maliba African Market",
    "type": "grocery_store",
    "address": "1987 Adam Clayton Powell Jr Blvd, New York, NY 10026, USA",
    "lat": 40.805256799999995,
    "lng": -73.9507036,
    "phone": "+1 646-351-6760",
    "website": null,
    "source": "google",
    "source_id": "ChIJ0UNj0xP2wokRbylA_W7ET5Q",
    "search_term": "African grocery",
    "country": "US",
    "city": "New York"
  },
  {
    "name": "African store",
    "type": "grocery_store",
    "address": "26 W 28th St, New York, NY 10001, USA",
    "lat": 40.745320400000004,
    "lng": -73.9892776,
    "phone": null,
    "website": null,
    "source": "google",
    "source_id": "ChIJg2HGNwBZwokRfYSmS6wu4mY",
    "search_term": "African grocery",
    "country": "US",
    "city": "New York"
  },
  {
    "name": "CO-OP CITY AFRICAN MARKET Inc.",
    "type": "grocery_store",
    "address": "2829 Edson Ave, Bronx, NY 10469, USA",
    "lat": 40.868623899999996,
    "lng": -73.83377709999999,
    "phone": "+1 718-708-5939",
    "website": null,
    "source": "google",
    "source_id": "ChIJq6qqqk7zwokRfn3yV4h30ck",
    "search_term": "African grocery",
    "country": "US",
    "city": "New York"
  },
  {
    "name": "Touba African Market Dress Flavor",
    "type": "grocery_store",
    "address": "84 E 116th St, New York, NY 10029, USA",
    "lat": 40.7993105,
    "lng": -73.9436692,
    "phone": "+1 212-996-1101",
    "website": null,
    "source": "google",
    "source_id": "ChIJG_HyZg_2wokR4jDRwWs9Qys",
    "search_term": "African grocery",
    "country": "US",
    "city": "New York"
  },
  {
    "name": "Harlem African Market, Inc.",
    "type": "grocery_store",
    "address": "2529 Frederick Douglass Blvd, New York, NY 10030, USA",
    "lat": 40.8168465,
    "lng": -73.9465948,
    "phone": "+1 646-240-3205",
    "website": null,
    "source": "google",
    "source_id": "ChIJA78A1hT3wokRBQdxX4ZEA9k",
    "search_term": "African grocery",
    "country": "US",
    "city": "New York"
  },
  {
    "name": "Diaby African Market",
    "type": "grocery_store",
    "address": "1164 Fulton St, Brooklyn, NY 11216, USA",
    "lat": 40.6807722,
    "lng": -73.9544611,
    "phone": "+1 718-783-0906",
    "website": "https://diaby-african-market.edan.io/",
    "source": "google",
    "source_id": "ChIJ4eea7ZlbwokRMAJPsU4WjcY",
    "search_term": "African grocery",
    "country": "US",
    "city": "New York"
  },
  {
    "name": "Wazobia African market",
    "type": "grocery_store",
    "address": "1204 Flatbush Ave, Brooklyn, NY 11226, USA",
    "lat": 40.640895,
    "lng": -73.9563477,
    "phone": "+1 718-282-1300",
    "website": null,
    "source": "google",
    "source_id": "ChIJAYnz9khbwokRkgEK6dwehYc",
    "search_term": "African grocery",
    "country": "US",
    "city": "New York"
  },
  {
    "name": "Central International African Market",
    "type": "grocery_store",
    "address": "8 Warburton Ave, Yonkers, NY 10701, USA",
    "lat": 40.9347128,
    "lng": -73.8993279,
    "phone": "+1 914-410-4640",
    "website": null,
    "source": "google",
    "source_id": "ChIJ-xSUeSrzwokRNiaRRb8s9PM",
    "search_term": "African grocery",
    "country": "US",
    "city": "New York"
  },
  {
    "name": "Makola African Market Imports",
    "type": "grocery_store",
    "address": "The Exeter Plaza, 375 Lyons Ave, Newark, NJ 07112, USA",
    "lat": 40.713333299999995,
    "lng": -74.22,
    "phone": "+1 973-926-3919",
    "website": "http://www.charlottfields.com/",
    "source": "google",
    "source_id": "ChIJbWQNktSsw4kRjER7wWPz_bM",
    "search_term": "African grocery",
    "country": "US",
    "city": "New York"
  },
  {
    "name": "Ecowas African Food Market",
    "type": "grocery_store",
    "address": "2437 Pitkin Ave, Brooklyn, NY 11208, USA",
    "lat": 40.6740845,
    "lng": -73.8825059,
    "phone": "+1 718-277-8118",
    "website": null,
    "source": "google",
    "source_id": "ChIJ4f0y3b1dwokR66hitoDYJec",
    "search_term": "African grocery",
    "country": "US",
    "city": "New York"
  },
  {
    "name": "African Home Land Store",
    "type": "grocery_store",
    "address": "70 Victory Blvd, Staten Island, NY 10301, USA",
    "lat": 40.638127,
    "lng": -74.0789374,
    "phone": "+1 718-727-7600",
    "website": null,
    "source": "google",
    "source_id": "ChIJeSGs5TJOwokRa0X6nm4C8bI",
    "search_term": "African grocery",
    "country": "US",
    "city": "New York"
  },
  {
    "name": "African Paradise",
    "type": "grocery_store",
    "address": "327 Malcolm X Blvd # 1, New York, NY 10027, USA",
    "lat": 40.8088978,
    "lng": -73.9451619,
    "phone": "+1 212-410-5294",
    "website": "http://www.theafricanparadise.com/",
    "source": "google",
    "source_id": "ChIJk9cOKw32wokRsXr43tTJfOo",
    "search_term": "African market",
    "country": "US",
    "city": "New York"
  },
  {
    "name": "Home",
    "type": "grocery_store",
    "address": "2252 Webster Ave, Bronx, NY 10457, USA",
    "lat": 40.8555694,
    "lng": -73.8957583,
    "phone": "+1 929-263-1400",
    "website": null,
    "source": "google",
    "source_id": "ChIJE4Nu73v0wokRLi7O8IJLbyE",
    "search_term": "African market",
    "country": "US",
    "city": "New York"
  },
  {
    "name": "Unity African Market (Owuo Enterprises)",
    "type": "grocery_store",
    "address": "60 E 174th St, Bronx, NY 10452, USA",
    "lat": 40.8447598,
    "lng": -73.9128392,
    "phone": "+1 718-466-0160",
    "website": null,
    "source": "google",
    "source_id": "ChIJtx46ShX0wokRgv7YIx7urHU",
    "search_term": "African market",
    "country": "US",
    "city": "New York"
  },
  {
    "name": "Sweet Home African Grocery",
    "type": "grocery_store",
    "address": "15 Bedford Park Blvd, Bronx, NY 10468, USA",
    "lat": 40.8732417,
    "lng": -73.8888985,
    "phone": "+1 347-270-3023",
    "website": "http://fiasscogo.wixsite.com/sweethomeafricanmkt",
    "source": "google",
    "source_id": "ChIJczAPKXbzwokRkslasKJ1PtE",
    "search_term": "African food store",
    "country": "US",
    "city": "New York"
  },
  {
    "name": "Eghe African Market",
    "type": "grocery_store",
    "address": "1782 Pitkin Ave, Brooklyn, NY 11212, USA",
    "lat": 40.6699464,
    "lng": -73.9072917,
    "phone": "+1 718-498-3193",
    "website": null,
    "source": "google",
    "source_id": "ChIJA3PeoF5cwokRv7Hap8B-qNk",
    "search_term": "African food store",
    "country": "US",
    "city": "New York"
  },
  {
    "name": "Adja Khady",
    "type": "grocery_store",
    "address": "251 W 116th St, New York, NY 10026, USA",
    "lat": 40.804363099999996,
    "lng": -73.9545787,
    "phone": "+1 212-933-0374",
    "website": null,
    "source": "google",
    "source_id": "ChIJQcg8uBb2wokRF8q4fhayVRw",
    "search_term": "African supermarket",
    "country": "US",
    "city": "New York"
  },
  {
    "name": "Royal African & Caribbean Foods - West African Market in Bronx",
    "type": "grocery_store",
    "address": "2957 Webster Ave, Bronx, NY 10458, USA",
    "lat": 40.867615199999996,
    "lng": -73.8833519,
    "phone": "+1 718-620-8000",
    "website": "https://www.royacshop.com/",
    "source": "google",
    "source_id": "ChIJp7NCiXnzwokRA0vWiU-oJLg",
    "search_term": "African supermarket",
    "country": "US",
    "city": "New York"
  },
  {
    "name": "Foua African Market",
    "type": "grocery_store",
    "address": "797 Communipaw Ave, Jersey City, NJ 07304, USA",
    "lat": 40.720685499999995,
    "lng": -74.08107059999999,
    "phone": "+1 201-598-0642",
    "website": null,
    "source": "google",
    "source_id": "ChIJf5hznQxRwokRqMybebRouxI",
    "search_term": "West African market",
    "country": "US",
    "city": "New York"
  },
  {
    "name": "Diawando New York",
    "type": "grocery_store",
    "address": "163 Mott St, New York, NY 10013, USA",
    "lat": 40.719690199999995,
    "lng": -73.99643209999999,
    "phone": "+1 332-297-5941",
    "website": "https://diawandonewyork.com/",
    "source": "google",
    "source_id": "ChIJMRq9GLJZwokR8IoUkob2IQ0",
    "search_term": "West African market",
    "country": "US",
    "city": "New York"
  },
  {
    "name": "Original Kaneshie Market West African and Caribbean Grocery",
    "type": "grocery_store",
    "address": "520 Ernston Rd, Parlin, NJ 08859, USA",
    "lat": 40.4532393,
    "lng": -74.29373679999999,
    "phone": "+1 732-721-0300",
    "website": "http://originalkaneshiemarket.com/",
    "source": "google",
    "source_id": "ChIJL0_FQuzLw4kR1g3sTGajrm8",
    "search_term": "West African market",
    "country": "US",
    "city": "New York"
  },
  {
    "name": "West African Store",
    "type": "grocery_store",
    "address": "89 164th St #53, Jamaica, NY 11432, USA",
    "lat": 40.706015099999995,
    "lng": -73.7960871,
    "phone": "+1 718-657-7884",
    "website": null,
    "source": "google",
    "source_id": "ChIJTW2eS9FlwokRPiCJ144k9bc",
    "search_term": "West African market",
    "country": "US",
    "city": "New York"
  },
  {
    "name": "Iddo African Food Market",
    "type": "grocery_store",
    "address": "361 New Lots Ave, Brooklyn, NY 11207, USA",
    "lat": 40.661730999999996,
    "lng": -73.8938503,
    "phone": "+1 917-916-4072",
    "website": null,
    "source": "google",
    "source_id": "ChIJR3DyAbNdwokRzgmYwB7PM5E",
    "search_term": "East African market",
    "country": "US",
    "city": "New York"
  },
  {
    "name": "A Life Wholesale African Market",
    "type": "grocery_store",
    "address": "1307 E Bay Ave., Bronx, NY 10474, USA",
    "lat": 40.8090875,
    "lng": -73.8846757,
    "phone": "+1 718-450-4967",
    "website": null,
    "source": "google",
    "source_id": "ChIJl08Yqkb1wokRyqS0TOGFKuk",
    "search_term": "East African market",
    "country": "US",
    "city": "New York"
  },
  {
    "name": "African American Market",
    "type": "grocery_store",
    "address": "292 E Burnside Ave, Bronx, NY 10457, USA",
    "lat": 40.850708,
    "lng": -73.901625,
    "phone": "+1 718-299-9500",
    "website": null,
    "source": "google",
    "source_id": "ChIJR4Cfk2_0wokRxqvlXesqRx0",
    "search_term": "East African market",
    "country": "US",
    "city": "New York"
  },
  {
    "name": "Adum African Market",
    "type": "grocery_store",
    "address": "261 E 167th St, Bronx, NY 10456, USA",
    "lat": 40.833593,
    "lng": -73.914222,
    "phone": "+1 718-681-7065",
    "website": null,
    "source": "google",
    "source_id": "ChIJqfHsjTf0wokRTarGu6OIkGk",
    "search_term": "East African market",
    "country": "US",
    "city": "New York"
  },
  {
    "name": "Nafaya",
    "type": "grocery_store",
    "address": "1657 Bedford Ave, Brooklyn, NY 11225, USA",
    "lat": 40.6660359,
    "lng": -73.9565002,
    "phone": "+1 718-514-2913",
    "website": null,
    "source": "google",
    "source_id": "ChIJpcBLdXNbwokR5Jpo3Cx0Fg0",
    "search_term": "Nigerian grocery",
    "country": "US",
    "city": "New York"
  },
  {
    "name": "Nunu Ethiopian Coffee, Clothing, & Products",
    "type": "grocery_store",
    "address": "2100 Amsterdam Ave, New York, NY 10032, USA",
    "lat": 40.837489999999995,
    "lng": -73.939082,
    "phone": "+1 917-472-7187",
    "website": "http://nunubaltena2.square.site/",
    "source": "google",
    "source_id": "ChIJE_PWMAn3wokRqMR3s_UQhyA",
    "search_term": "Ethiopian grocery",
    "country": "US",
    "city": "New York"
  },
  {
    "name": "Kalustyan's",
    "type": "grocery_store",
    "address": "123 Lexington Ave, New York, NY 10016, USA",
    "lat": 40.7428238,
    "lng": -73.98211169999999,
    "phone": "+1 212-685-3451",
    "website": "https://foodsofnations.com/",
    "source": "google",
    "source_id": "ChIJe44DMwhZwokRdoX7Us_Y3A8",
    "search_term": "Ethiopian grocery",
    "country": "US",
    "city": "New York"
  },
  {
    "name": "Westside Market NYC",
    "type": "grocery_store",
    "address": "77 7th Ave, New York, NY 10011, USA",
    "lat": 40.7387517,
    "lng": -73.99907639999999,
    "phone": "+1 212-807-7771",
    "website": "https://wmarketnyc.com/77-seventh-avenue/?utm_source=gmb&utm_medium=Yext",
    "source": "google",
    "source_id": "ChIJBxSM6r1ZwokRhPDCBwi4jlE",
    "search_term": "Ethiopian grocery",
    "country": "US",
    "city": "New York"
  },
  {
    "name": "Park Slope Food Coop",
    "type": "grocery_store",
    "address": "782 Union St, Brooklyn, NY 11215, USA",
    "lat": 40.674810199999996,
    "lng": -73.97686279999999,
    "phone": "+1 718-622-0560",
    "website": "http://foodcoop.com/",
    "source": "google",
    "source_id": "ChIJpQemVgdbwokR4tVC2x91OtE",
    "search_term": "Ethiopian grocery",
    "country": "US",
    "city": "New York"
  },
  {
    "name": "Duals Natural Herbs & Teas",
    "type": "grocery_store",
    "address": "91 1st Ave Store Below, 91 1st Ave, New York, NY 10003, USA",
    "lat": 40.72623370000001,
    "lng": -73.98663,
    "phone": "+1 212-979-6045",
    "website": "http://dualsnatural.com/",
    "source": "google",
    "source_id": "ChIJeTNZ0pxZwokRkS3S9Lj9VRg",
    "search_term": "Ethiopian grocery",
    "country": "US",
    "city": "New York"
  },
  {
    "name": "Esey Market & Maltina LLC",
    "type": "grocery_store",
    "address": "325 Valley Rd, West Orange, NJ 07052, USA",
    "lat": 40.776125,
    "lng": -74.2397172,
    "phone": "+1 973-669-4747",
    "website": null,
    "source": "google",
    "source_id": "ChIJjY1idD6rw4kRMgrZlr5CN6M",
    "search_term": "Ethiopian grocery",
    "country": "US",
    "city": "New York"
  },
  {
    "name": "Fairway Market Kips Bay",
    "type": "grocery_store",
    "address": "550 2nd Ave, New York, NY 10016, USA",
    "lat": 40.7424641,
    "lng": -73.9770711,
    "phone": "+1 718-569-4522",
    "website": "http://www.fairwaymarket.com/",
    "source": "google",
    "source_id": "ChIJVY3s0ghZwokR6e1D8qjJL1k",
    "search_term": "Ethiopian grocery",
    "country": "US",
    "city": "New York"
  },
  {
    "name": "Surulere Super Store (Oja Oba) African Market",
    "type": "grocery_store",
    "address": "2724 Morris Ave, Union, NJ 07083, USA",
    "lat": 40.7049552,
    "lng": -74.2961917,
    "phone": "+1 201-559-5353",
    "website": null,
    "source": "google",
    "source_id": "ChIJyZhp0futw4kR6b068Qa5ulY",
    "search_term": "Ethiopian grocery",
    "country": "US",
    "city": "New York"
  },
  {
    "name": "Lanisdeb African & Caribbean Market",
    "type": "grocery_store",
    "address": "891 Clarkson Ave, Brooklyn, NY 11203, USA",
    "lat": 40.656889,
    "lng": -73.9283973,
    "phone": "+1 347-365-7028",
    "website": null,
    "source": "google",
    "source_id": "ChIJLXh_hypdwokRa5zOkno_yIE",
    "search_term": "Ethiopian grocery",
    "country": "US",
    "city": "New York"
  },
  {
    "name": "DJOBO African & Middle East Market",
    "type": "grocery_store",
    "address": "984A Intervale Ave, Bronx, NY 10459, USA",
    "lat": 40.822862799999996,
    "lng": -73.8965061,
    "phone": "+1 646-251-3717",
    "website": null,
    "source": "google",
    "source_id": "ChIJiz_9BHb1wokRulEn4sy0rs4",
    "search_term": "Ethiopian grocery",
    "country": "US",
    "city": "New York"
  },
  {
    "name": "Farida Halal African Market",
    "type": "grocery_store",
    "address": "2529 Frederick Douglass Blvd, New York, NY 10030, USA",
    "lat": 40.8168641,
    "lng": -73.9466133,
    "phone": "+1 917-420-9989",
    "website": null,
    "source": "google",
    "source_id": "ChIJZ2Gmu773wokRyGIxrFH6_Zs",
    "search_term": "Halal African market",
    "country": "US",
    "city": "New York"
  },
  {
    "name": "African American Halal Supermarket",
    "type": "grocery_store",
    "address": "1770 Jerome Ave, Bronx, NY 10453, USA",
    "lat": 40.8482128,
    "lng": -73.9117455,
    "phone": "+1 718-466-4501",
    "website": null,
    "source": "google",
    "source_id": "ChIJYSmmUGv0wokR-JcXW8nUFQ4",
    "search_term": "Halal African market",
    "country": "US",
    "city": "New York"
  },
  {
    "name": "Halal Maurimart",
    "type": "grocery_store",
    "address": "1170 Fulton St, Brooklyn, NY 11216, USA",
    "lat": 40.6806732,
    "lng": -73.9541895,
    "phone": "+1 347-455-8070",
    "website": null,
    "source": "google",
    "source_id": "ChIJUztgTQBbwokRYAhBtQlpQjE",
    "search_term": "Halal African market",
    "country": "US",
    "city": "New York"
  },
  {
    "name": "Noor African meat Market",
    "type": "grocery_store",
    "address": "518 Bergen Ave, Jersey City, NJ 07304, USA",
    "lat": 40.7185184,
    "lng": -74.0750511,
    "phone": "+1 201-268-7102",
    "website": null,
    "source": "google",
    "source_id": "ChIJbzgkgFBRwokRVUHyYqLR76E",
    "search_term": "Halal African market",
    "country": "US",
    "city": "New York"
  },
  {
    "name": "Amenazel Halal African Market",
    "type": "grocery_store",
    "address": "744 Allerton Ave, Bronx, NY 10467, USA",
    "lat": 40.8653273,
    "lng": -73.8657084,
    "phone": "+1 347-616-3272",
    "website": "http://www.amenazelorganic.com/",
    "source": "google",
    "source_id": "ChIJgXWsIgDzwokRyHWelPp0f68",
    "search_term": "Halal African market",
    "country": "US",
    "city": "New York"
  },
  {
    "name": "Balady Halal Foods",
    "type": "grocery_store",
    "address": "7128 5th Ave, Brooklyn, NY 11209, USA",
    "lat": 40.6321369,
    "lng": -74.02171840000001,
    "phone": "+1 718-567-2252",
    "website": "https://www.baladyfoods.com/",
    "source": "google",
    "source_id": "ChIJXUurglBFwokRopd9_c_e2-g",
    "search_term": "Halal African market",
    "country": "US",
    "city": "New York"
  },
  {
    "name": "Uptown African Halal Meat & Fish Market",
    "type": "grocery_store",
    "address": "3722 White Plains Rd, Bronx, NY 10467, USA",
    "lat": 40.881968,
    "lng": -73.863342,
    "phone": "+1 347-346-8807",
    "website": null,
    "source": "google",
    "source_id": "ChIJ5f5zlM7zwokRe7xGTXk1RbY",
    "search_term": "Halal African market",
    "country": "US",
    "city": "New York"
  },
  {
    "name": "Halal Meat & Fish Market",
    "type": "grocery_store",
    "address": "280 E Burnside Ave Building #B, Bronx, NY 10457, USA",
    "lat": 40.850860499999996,
    "lng": -73.90179440000001,
    "phone": "+1 718-299-9500",
    "website": null,
    "source": "google",
    "source_id": "ChIJE54O1771wokRHWMMCdG2ReA",
    "search_term": "Halal African market",
    "country": "US",
    "city": "New York"
  },
  {
    "name": "Fertile Crescent",
    "type": "grocery_store",
    "address": "570 Atlantic Ave, Brooklyn, NY 11217, USA",
    "lat": 40.684443699999996,
    "lng": -73.97897979999999,
    "phone": "+1 718-797-3066",
    "website": "http://fertile-crescent.edan.io/",
    "source": "google",
    "source_id": "ChIJU43Bk61bwokRdJpWqU6JMmo",
    "search_term": "Halal African market",
    "country": "US",
    "city": "New York"
  },
  {
    "name": "B & B Grocery & Halal Meat",
    "type": "grocery_store",
    "address": "92-12 147th Pl, Jamaica, NY 11435, USA",
    "lat": 40.701496299999995,
    "lng": -73.80703849999999,
    "phone": "+1 718-526-2086",
    "website": null,
    "source": "google",
    "source_id": "ChIJ2ar9SMVgwokRnBDBugHuFjQ",
    "search_term": "Halal African market",
    "country": "US",
    "city": "New York"
  },
  {
    "name": "New Harlem Halal Meat",
    "type": "grocery_store",
    "address": "2142 Frederick Douglass Blvd, New York, NY 10026, USA",
    "lat": 40.8041426,
    "lng": -73.9553447,
    "phone": "+1 646-698-5345",
    "website": null,
    "source": "google",
    "source_id": "ChIJi9pD6xb2wokREOYEFOxaFpw",
    "search_term": "Halal African market",
    "country": "US",
    "city": "New York"
  },
  {
    "name": "M. Barrie African Market",
    "type": "grocery_store",
    "address": "3818 White Plains Rd, Bronx, NY 10467, USA",
    "lat": 40.884064099999996,
    "lng": -73.8623219,
    "phone": "+1 347-346-7895",
    "website": null,
    "source": "google",
    "source_id": "ChIJe7XG_DzzwokRAp8SEdVgvm8",
    "search_term": "Halal African market",
    "country": "US",
    "city": "New York"
  },
  {
    "name": "M B Halal Meats",
    "type": "grocery_store",
    "address": "326 Empire Blvd, Brooklyn, NY 11225, USA",
    "lat": 40.663721599999995,
    "lng": -73.9514473,
    "phone": "+1 347-318-3591",
    "website": null,
    "source": "google",
    "source_id": "ChIJIzxYJm9bwokRATW9OsjF8Zw",
    "search_term": "Halal African market",
    "country": "US",
    "city": "New York"
  },
  {
    "name": "Assy distribution GENERAL MERCHANDISE",
    "type": "grocery_store",
    "address": "1191 Broadway, Brooklyn, NY 11221, USA",
    "lat": 40.6925643,
    "lng": -73.9270487,
    "phone": "+1 347-742-5267",
    "website": null,
    "source": "google",
    "source_id": "ChIJo9Czjf9dwokRuIcWHRmn3so",
    "search_term": "African spice shop",
    "country": "US",
    "city": "New York"
  },
  {
    "name": "AfroSpice BisTro",
    "type": "restaurant",
    "address": "549 Commonwealth Ave, Bronx, NY 10473, USA",
    "lat": 40.816448099999995,
    "lng": -73.8649192,
    "phone": "+1 718-535-8686",
    "website": "http://www.afrospicebistro.com/",
    "source": "google",
    "source_id": "ChIJxxfDfgD1wokRQ5xD3dLgRJs",
    "search_term": "African restaurant",
    "country": "US",
    "city": "Bronx"
  },
  {
    "name": "Mama G. African Kitchen",
    "type": "restaurant",
    "address": "1322A E Gun Hill Rd, Bronx, NY 10467, USA",
    "lat": 40.871047499999996,
    "lng": -73.84768679999999,
    "phone": "+1 718-708-7811",
    "website": null,
    "source": "google",
    "source_id": "ChIJe1JI1kvzwokRGnXCIRJTbKI",
    "search_term": "African restaurant",
    "country": "US",
    "city": "Bronx"
  },
  {
    "name": "Pikine African Restaurant",
    "type": "restaurant",
    "address": "1504 Westchester Ave, Bronx, NY 10472, USA",
    "lat": 40.8283353,
    "lng": -73.8797195,
    "phone": "+1 718-676-0018",
    "website": null,
    "source": "google",
    "source_id": "ChIJ4ahkJgD1wokR_aNwechmWiw",
    "search_term": "African restaurant",
    "country": "US",
    "city": "Bronx"
  },