[
  {
    "name": "Awash Ethiopian Restaurant",
    "type": "restaurant",
    "address": "242, Court Street, 11201, US",
    "lat": 40.6857539,
    "lng": -73.9944417,
    "phone": "+1-718-243-2151",
    "website": "https://www.awashny.com",
    "source": "osm",
    "source_id": "2387017165",
    "search_term": "East African restaurant",
    "country": "US",
    "city": "New York"
  },
  {
    "name": "Bati Ethiopian Kitchen",
    "type": "restaurant",
    "address": "1057, Fulton Street, 11238, US",
    "lat": 40.6820512,
    "lng": -73.9594715,
    "phone": "+1-718-797-9696",
    "website": "https://www.batikitchen.com",
    "source": "osm",
    "source_id": "2565140913",
    "search_term": "East African restaurant",
    "country": "US",
    "city": "New York"
  },
  {
    "name": "Lalibela",
    "type": "restaurant",
    "address": "2084, Frederick Douglass Boulevard, 10026, US",
    "lat": 40.8023112,
    "lng": -73.9566682,
    "phone": "+1-917-409-1609",
    "website": null,
    "source": "osm",
    "source_id": "2762470556",
    "search_term": "East African restaurant",
    "country": "US",
    "city": "New York"
  },
  {
    "name": "Meskerem",
    "type": "restaurant",
    "address": "124, MacDougal Street, New York, 10012, US",
    "lat": 40.7299814,
    "lng": -74.0003769,
    "phone": "+1 212 777 8111",
    "website": null,
    "source": "osm",
    "source_id": "3822461834",
    "search_term": "East African restaurant",
    "country": "US",
    "city": "New York"
  },
  {
    "name": "Mesob Ethiopian",
    "type": "restaurant",
    "address": "515, Bloomfield Avenue, Montclair, 07042, US",
    "lat": 40.8149931,
    "lng": -74.2187158,
    "phone": null,
    "website": "https://mesobrestaurant.com/",
    "source": "osm",
    "source_id": "4837099594",
    "search_term": "East African restaurant",
    "country": "US",
    "city": "New York"
  },
  {
    "name": "Tsion Cafe",
    "type": "restaurant",
    "address": "763, Saint Nicholas Avenue, US",
    "lat": 40.8262841,
    "lng": -73.9434171,
    "phone": "+1-212-234-2070",
    "website": null,
    "source": "osm",
    "source_id": "5296101437",
    "search_term": "East African restaurant",
    "country": "US",
    "city": "New York"
  },
  {
    "name": "Bunna Cafe",
    "type": "restaurant",
    "address": "1084, Flushing Avenue, US",
    "lat": 40.7048893,
    "lng": -73.9278626,
    "phone": "+1-347-295-2227",
    "website": "https://www.bunnaethiopia.net/",
    "source": "osm",
    "source_id": "5798954995",
    "search_term": "East African restaurant",
    "country": "US",
    "city": "New York"
  },
  {
    "name": "Awash",
    "type": "restaurant",
    "address": "338, East 6th Street, New York, US",
    "lat": 40.7265709,
    "lng": -73.9868216,
    "phone": "+1-212-982-9589",
    "website": "https://awashny.com",
    "source": "osm",
    "source_id": "6468793385",
    "search_term": "East African restaurant",
    "country": "US",
    "city": "New York"
  },
  {
    "name": "Abyssinia",
    "type": "restaurant",
    "address": "268, West 135th Street, New York, 10030, US",
    "lat": 40.8160376,
    "lng": -73.9458914,
    "phone": "+1 212 2812673",
    "website": "https://abyssinianyc.com/",
    "source": "osm",
    "source_id": "6511867025",
    "search_term": "East African restaurant",
    "country": "US",
    "city": "New York"
  },
  {
    "name": "Massawa",
    "type": "restaurant",
    "address": "1239, Amsterdam Avenue, New York, 10027, US",
    "lat": 40.8097913,
    "lng": -73.9586122,
    "phone": "+1-212-663-0505",
    "website": "https://www.massawanyc.com/",
    "source": "osm",
    "source_id": "6927650853",
    "search_term": "East African restaurant",
    "country": "US",
    "city": "New York"
  },
  {
    "name": "Awash",
    "type": "restaurant",
    "address": "947, Amsterdam Avenue, New York, 10025, US",
    "lat": 40.800689,
    "lng": -73.9652812,
    "phone": "+1 212-961-1416",
    "website": null,
    "source": "osm",
    "source_id": "7159068917",
    "search_term": "East African restaurant",
    "country": "US",
    "city": "New York"
  },
  {
    "name": "Ras",
    "type": "restaurant",
    "address": "US",
    "lat": 40.6734302,
    "lng": -73.9568169,
    "phone": "+1-718-622-6220",
    "website": "https://www.rasplantbased.com",
    "source": "osm",
    "source_id": "9518146176",
    "search_term": "East African restaurant",
    "country": "US",
    "city": "New York"
  },
  {
    "name": "Safari",
    "type": "restaurant",
    "address": "219, West 116th Street, 10026, US",
    "lat": 40.8038486,
    "lng": -73.9535718,
    "phone": "+1 646-964-4252",
    "website": "https://safariharlem.com",
    "source": "osm",
    "source_id": "9553068946",
    "search_term": "East African restaurant",
    "country": "US",
    "city": "New York"
  },
  {
    "name": "Addey Ababa",
    "type": "restaurant",
    "address": "736, West 181st Street, New York, 10033, US",
    "lat": 40.8505785,
    "lng": -73.9376955,
    "phone": "+1-212-256-0701",
    "website": null,
    "source": "osm",
    "source_id": "11963618919",
    "search_term": "East African restaurant",
    "country": "US",
    "city": "New York"
  },
  {
    "name": "Cafe Massawa",
    "type": "restaurant",
    "address": "3153, Broadway, New York, 10027, US",
    "lat": 40.8145806,
    "lng": -73.9594549,
    "phone": "+12126631800",
    "website": "https://www.cafemassawa.com/",
    "source": "osm",
    "source_id": "12118435378",
    "search_term": "East African restaurant",
    "country": "US",
    "city": "New York"
  },
  {
    "name": "Sexy Queen",
    "type": "restaurant",
    "address": "1177, Bedford Avenue, 11216, US",
    "lat": 40.6831772,
    "lng": -73.9537121,
    "phone": "+1-646-320-3952",
    "website": "https://www.sexy-queen.com",
    "source": "osm",
    "source_id": "4774165528",
    "search_term": "Nigerian restaurant",
    "country": "US",
    "city": "New York"
  },
  {
    "name": "Cafe Plus",
    "type": "restaurant",
    "address": "1516, Fulton Street, Brooklyn, 11213, US",
    "lat": 40.6797547,
    "lng": -73.9402608,
    "phone": null,
    "website": "https://thecafeplus.com",
    "source": "osm",
    "source_id": "9532890830",
    "search_term": "Nigerian restaurant",
    "country": "US",
    "city": "New York"
  },
  {
    "name": "Buka",
    "type": "restaurant",
    "address": "US",
    "lat": 40.6815735,
    "lng": -73.9571317,
    "phone": "+1-347-763-0619",
    "website": "https://www.bukanewyork.com",
    "source": "osm",
    "source_id": "10594636152",
    "search_term": "Nigerian restaurant",
    "country": "US",
    "city": "New York"
  },
  {
    "name": "Hills Kitchen",
    "type": "restaurant",
    "address": "US",
    "lat": 40.7025121,
    "lng": -73.9251238,
    "phone": "+1-929-480-8775",
    "website": null,
    "source": "osm",
    "source_id": "10765067343",
    "search_term": "Nigerian restaurant",
    "country": "US",
    "city": "New York"
  },
  {
    "name": "Akara House",
    "type": "restaurant",
    "address": "US",
    "lat": 40.6764406,
    "lng": -73.9500418,
    "phone": null,
    "website": null,
    "source": "osm",
    "source_id": "12113605047",
    "search_term": "Nigerian restaurant",
    "country": "US",
    "city": "New York"
  },
  {
    "name": "Naija Bar & Grill",
    "type": "restaurant",
    "address": "US",
    "lat": 40.5984605,
    "lng": -74.0809074,
    "phone": null,
    "website": null,
    "source": "osm",
    "source_id": "13186767854",
    "search_term": "Nigerian restaurant",
    "country": "US",
    "city": "New York"
  },
  {
    "name": "Joloff",
    "type": "restaurant",
    "address": "1168, Bedford Avenue, 11216, US",
    "lat": 40.6840885,
    "lng": -73.954221,
    "phone": "+1-718-230-0523",
    "website": "https://www.joloffjoloff.com",
    "source": "osm",
    "source_id": "2494071312",
    "search_term": "Senegalese restaurant",
    "country": "US",
    "city": "Bronx"
  },
  {
    "name": "Chez Alain",
    "type": "restaurant",
    "address": "2046, Adam Clayton Powell Jr Boulevard, US",
    "lat": 40.8073593,
    "lng": -73.9498334,
    "phone": null,
    "website": null,
    "source": "osm",
    "source_id": "5266905501",
    "search_term": "Senegalese restaurant",
    "country": "US",
    "city": "Bronx"
  },
  {
    "name": "The Baobab Gouygui",
    "type": "restaurant",
    "address": "US",
    "lat": 40.6806641,
    "lng": -73.952118,
    "phone": "+1-718-484-4866",
    "website": null,
    "source": "osm",
    "source_id": "9403176562",
    "search_term": "Senegalese restaurant",
    "country": "US",
    "city": "Bronx"
  },
  {
    "name": "Le Baobab Gouygui",
    "type": "restaurant",
    "address": "120, West 116th Street, 10026, US",
    "lat": 40.8023545,
    "lng": -73.9509307,
    "phone": "+1 212-864-4700",
    "website": null,
    "source": "osm",
    "source_id": "9553068941",
    "search_term": "Senegalese restaurant",
    "country": "US",
    "city": "Bronx"
  },
  {
    "name": "Keur Coumba",
    "type": "restaurant",
    "address": "125, West 116th Street, 10026, US",
    "lat": 40.8026563,
    "lng": -73.9507343,
    "phone": "+1 212-866-1551",
    "website": null,
    "source": "osm",
    "source_id": "9553068947",
    "search_term": "Senegalese restaurant",
    "country": "US",
    "city": "Bronx"
  },
  {
    "name": "Pikine",
    "type": "restaurant",
    "address": "243, West 116th Street, 10026, US",
    "lat": 40.8041913,
    "lng": -73.9543835,
    "phone": "+1 646-922-7015",
    "website": "pikinerestaurantny.com",
    "source": "osm",
    "source_id": "9553153273",
    "search_term": "Senegalese restaurant",
    "country": "US",
    "city": "Bronx"
  },
  {
    "name": "Argan Moroccan Cuisine",
    "type": "restaurant",
    "address": "US",
    "lat": 39.9504604,
    "lng": -75.169114,
    "phone": null,
    "website": null,
    "source": "osm",
    "source_id": "1035941121",
    "search_term": "African restaurant",
    "country": "US",
    "city": "Philadelphia"
  },
  {
    "name": "Dahlak",
    "type": "restaurant",
    "address": "US",
    "lat": 39.9484518,
    "lng": -75.2173617,
    "phone": null,
    "website": null,
    "source": "osm",
    "source_id": "2129707998",
    "search_term": "African restaurant",
    "country": "US",
    "city": "Philadelphia"
  },
  {
    "name": "Queen of Sheba",
    "type": "restaurant",
    "address": "4511, Baltimore Avenue, Philadelphia, 19143, US",
    "lat": 39.9491232,
    "lng": -75.2135379,
    "phone": null,
    "website": "https://www.queenofshebaphiladelphia.com/",
    "source": "osm",
    "source_id": "2132421303",
    "search_term": "African restaurant",
    "country": "US",
    "city": "Philadelphia"
  },
  {
    "name": "Abyssinia",
    "type": "restaurant",
    "address": "229, South 45th Street, Philadelphia, 19104, US",
    "lat": 39.9541784,
    "lng": -75.2117749,
    "phone": "+1-215-387-2424",
    "website": "https://www.abyssiniabarandrestaurant.com/",
    "source": "osm",
    "source_id": "2232292471",
    "search_term": "African restaurant",
    "country": "US",
    "city": "Philadelphia"
  },
  {
    "name": "Casablanca Mediterranean Grill",
    "type": "restaurant",
    "address": "947, Federal Street, Philadelphia, 19147, US",
    "lat": 39.9346764,
    "lng": -75.1602965,
    "phone": "+1-267-324-5165",
    "website": "https://casablanca-grill.com/",
    "source": "osm",
    "source_id": "12360481092",
    "search_term": "African restaurant",
    "country": "US",
    "city": "Philadelphia"
  },
  {
    "name": "Kilimandjaro",
    "type": "restaurant",
    "address": "4317, Chestnut Street, Philadelphia, 19104, US",
    "lat": 39.9567041,
    "lng": -75.2095635,
    "phone": null,
    "website": null,
    "source": "osm",
    "source_id": "12577161042",
    "search_term": "African restaurant",
    "country": "US",
    "city": "Philadelphia"
  },
  {
    "name": "CousCous",
    "type": "restaurant",
    "address": "995, State Route 70, Cherry Hill, 08034, US",
    "lat": 39.9103099,
    "lng": -74.9954506,
    "phone": "+1-856-427-9994",
    "website": null,
    "source": "osm",
    "source_id": "518102720",
    "search_term": "African restaurant",
    "country": "US",
    "city": "Philadelphia"
  },
  {
    "name": "African Grocery Inc.",
    "type": "grocery_store",
    "address": "US",
    "lat": 39.9491118,
    "lng": -75.2136911,
    "phone": null,
    "website": null,
    "source": "osm",
    "source_id": "2132923251",
    "search_term": "West African market",
    "country": "US",
    "city": "Philadelphia"
  },
  {
    "name": "Queensway",
    "type": "restaurant",
    "address": "13635, Old Annapolis Road, Bowie, 20720, US",
    "lat": 38.9702757,
    "lng": -76.7680972,
    "phone": "+1 240 260-3131",
    "website": "https://www.queenswayfood.com/",
    "source": "osm",
    "source_id": "5818892268",
    "search_term": "Nigerian restaurant",
    "country": "US",
    "city": "Washington DC"
  },
  {
    "name": "Mosun's Kitchen",
    "type": "restaurant",
    "address": "303, Muddy Branch Road, US",
    "lat": 39.1271643,
    "lng": -77.2083938,
    "phone": null,
    "website": null,
    "source": "osm",
    "source_id": "11696501460",
    "search_term": "Nigerian restaurant",
    "country": "US",
    "city": "Washington DC"
  },
  {
    "name": "Marrakesh",
    "type": "restaurant",
    "address": "1331, H Street Northwest, Washington, 20005, US",
    "lat": 38.9003956,
    "lng": -77.0307147,
    "phone": "+1-202-999-8640",
    "website": "https://www.marrakeshdc.com/",
    "source": "osm",
    "source_id": "738194994",
    "search_term": "Moroccan restaurant",
    "country": "US",
    "city": "Washington DC"
  },
  {
    "name": "Astoria's Kitchen by 54",
    "type": "restaurant",
    "address": "2121, K Street Northwest, Washington, 20037-1800, US",
    "lat": 38.9027672,
    "lng": -77.047121,
    "phone": "+1 202-792-8008",
    "website": "https://www.astoriaskitchen.com/",
    "source": "osm",
    "source_id": "3000232251",
    "search_term": "Moroccan restaurant",
    "country": "US",
    "city": "Washington DC"
  },
  {
    "name": "Fettoosh",
    "type": "restaurant",
    "address": "5100, Wilson Boulevard, US",
    "lat": 38.877673,
    "lng": -77.1221293,
    "phone": "+1 703-527-7710",
    "website": "http://www.fettoosh.com/",
    "source": "osm",
    "source_id": "5895178163",
    "search_term": "Moroccan restaurant",
    "country": "US",
    "city": "Washington DC"
  },
  {
    "name": "Suya Spot",
    "type": "restaurant",
    "address": "8701, Loch Raven Boulevard, Loch Raven, 21286, US",
    "lat": 39.3978231,
    "lng": -76.5631218,
    "phone": null,
    "website": null,
    "source": "osm",
    "source_id": "607458899",
    "search_term": "West African restaurant",
    "country": "US",
    "city": "Baltimore"
  },
  {
    "name": "All African Delights",
    "type": "grocery_store",
    "address": "2201 E, Eastern Boulevard, Middle River, 21220, US",
    "lat": 39.329472,
    "lng": -76.4396507,
    "phone": null,
    "website": null,
    "source": "osm",
    "source_id": "6020731776",
    "search_term": "East African market",
    "country": "US",
    "city": "Baltimore"
  },
  {
    "name": "Nepai & African Groceries",
    "type": "grocery_store",
    "address": "5426, US",
    "lat": 39.3247215,
    "lng": -76.5401061,
    "phone": null,
    "website": null,
    "source": "osm",
    "source_id": "6125935485",
    "search_term": "East African market",
    "country": "US",
    "city": "Baltimore"
  },
  {
    "name": "Lucy Ethiopian Cafe",
    "type": "restaurant",
    "address": "US",
    "lat": 42.342725,
    "lng": -71.0844421,
    "phone": null,
    "website": null,
    "source": "osm",
    "source_id": "2350127257",
    "search_term": "Ethiopian restaurant",
    "country": "US",
    "city": "Boston"
  },
  {
    "name": "Habesha",
    "type": "restaurant",
    "address": "535, Main Street, Malden, 02148, US",
    "lat": 42.4286302,
    "lng": -71.0670018,
    "phone": "+1 781-399-0868",
    "website": null,
    "source": "osm",
    "source_id": "4208037475",
    "search_term": "Ethiopian restaurant",
    "country": "US",
    "city": "Boston"
  },
  {
    "name": "Ethiopian Cafe",
    "type": "restaurant",
    "address": "377, Centre Street, Jamaica Plain, 02130, US",
    "lat": 42.3223246,
    "lng": -71.1090904,
    "phone": "+1-617-942-7192",
    "website": "https://www.grubhub.com/restaurant/ethiopian-cafe-377-centre-st-boston/2234602",
    "source": "osm",
    "source_id": "5939912285",
    "search_term": "Ethiopian restaurant",
    "country": "US",
    "city": "Boston"
  },
  {
    "name": "Blue Nilea",
    "type": "restaurant",
    "address": "389, Centre Street, Jamaica Plain, 02130, US",
    "lat": 42.3222413,
    "lng": -71.1095921,
    "phone": "+1-617-522-6453",
    "website": "https://www.bluenileincjp.com/",
    "source": "osm",
    "source_id": "5939912385",
    "search_term": "Ethiopian restaurant",
    "country": "US",
    "city": "Boston"
  },
  {
    "name": "Lalibela Ethiopian Restaurant and Bar",
    "type": "restaurant",
    "address": "US",
    "lat": 42.3656945,
    "lng": -71.1844368,
    "phone": null,
    "website": null,
    "source": "osm",
    "source_id": "13359931429",
    "search_term": "Ethiopian restaurant",
    "country": "US",
    "city": "Boston"
  },
  {
    "name": "Asmara Restaurant",
    "type": "restaurant",
    "address": "739, Massachusetts Avenue, Cambridge, 02139, US",
    "lat": 42.3664123,
    "lng": -71.1050773,
    "phone": "+1 617 864 7447",
    "website": "http://www.asmararestaurantboston.com",
    "source": "osm",
    "source_id": "2707441931",
    "search_term": "Eritrean restaurant",
    "country": "US",
    "city": "Boston"
  },
  {
    "name": "Desta Ethiopian Kitchen",
    "type": "restaurant",
    "address": "2566, Briarcliff Road Northeast, Atlanta, 30329, US",
    "lat": 33.8378955,
    "lng": -84.3103135,
    "phone": "+1-404-929-0011",
    "website": "https://destaethiopiankitchen.com/atlanta-desta-ethiopian-kitchen-briarcliff",
    "source": "osm",
    "source_id": "6595314833",
    "search_term": "East African restaurant",
    "country": "US",
    "city": "Atlanta"
  },
  {
    "name": "Lambadina Cafe",
    "type": "restaurant",
    "address": "3652, Market Street, Clarkston, 30021, US",
    "lat": 33.8102789,
    "lng": -84.2410685,
    "phone": "+1-404-477-3830",
    "website": null,
    "source": "osm",
    "source_id": "9950149141",
    "search_term": "East African restaurant",
    "country": "US",
    "city": "Atlanta"
  },
  {
    "name": "Abyssinia Cafe and Restaurant",
    "type": "restaurant",
    "address": "US",
    "lat": 33.8104439,
    "lng": -84.2424298,
    "phone": null,
    "website": null,
    "source": "osm",
    "source_id": "9950149142",
    "search_term": "East African restaurant",
    "country": "US",
    "city": "Atlanta"
  },
  {
    "name": "Al-Sultan Mediterranean Food",
    "type": "restaurant",
    "address": "US",
    "lat": 33.8107071,
    "lng": -84.239438,
    "phone": null,
    "website": null,
    "source": "osm",
    "source_id": "9950149144",
    "search_term": "East African restaurant",
    "country": "US",
    "city": "Atlanta"
  },
  {
    "name": "Sebli",
    "type": "restaurant",
    "address": "US",
    "lat": 33.7912072,
    "lng": -84.2290264,
    "phone": null,
    "website": null,
    "source": "osm",
    "source_id": "11296381217",
    "search_term": "East African restaurant",
    "country": "US",
    "city": "Atlanta"
  },
  {
    "name": "Ghion Cultural Hall",
    "type": "restaurant",
    "address": "2080, Cheshire Bridge Road, Atlanta, 30324, US",
    "lat": 33.8125008,
    "lng": -84.3551856,
    "phone": null,
    "website": null,
    "source": "osm",
    "source_id": "226571021",
    "search_term": "East African restaurant",
    "country": "US",
    "city": "Atlanta"
  },
  {
    "name": "African Market",
    "type": "grocery_store",
    "address": "US",
    "lat": 29.8535816,
    "lng": -95.6824645,
    "phone": null,
    "website": null,
    "source": "osm",
    "source_id": "5370765723",
    "search_term": "Nigerian grocery",
    "country": "US",
    "city": "Houston"
  },
  {
    "name": "Asvero African Market",
    "type": "grocery_store",
    "address": "US",
    "lat": 32.9756459,
    "lng": -96.5955684,
    "phone": null,
    "website": null,
    "source": "osm",
    "source_id": "7721761844",
    "search_term": "African grocery",
    "country": "US",
    "city": "Dallas"
  },
  {
    "name": "Tesfa Ethiopian Cuisine",
    "type": "restaurant",
    "address": "5352, North Broadway, Chicago, 60640, US",
    "lat": 41.9797035,
    "lng": -87.6603305,
    "phone": "+13126984481",
    "website": "https://www.tesfacuisine.com/",
    "source": "osm",
    "source_id": "4837409787",
    "search_term": "East African restaurant",
    "country": "US",
    "city": "Chicago"
  },
  {
    "name": "Demera Ethiopian Restaurant",
    "type": "restaurant",
    "address": "4801, North Broadway, Chicago, 60640, US",
    "lat": 41.96915,
    "lng": -87.659463,
    "phone": "+1-773-334-8787",
    "website": "https://www.demerachicago.com/",
    "source": "osm",
    "source_id": "5347947503",
    "search_term": "East African restaurant",
    "country": "US",
    "city": "Chicago"
  },
  {
    "name": "Mogadishu Restaurant",
    "type": "restaurant",
    "address": "931, North Orleans Street, Chicago, 60610, US",
    "lat": 41.8998396,
    "lng": -87.63707,
    "phone": "+1-312-265-1850",
    "website": null,
    "source": "osm",
    "source_id": "6322771416",
    "search_term": "East African restaurant",
    "country": "US",
    "city": "Chicago"
  },
  {
    "name": "Denden Restaurant",
    "type": "restaurant",
    "address": "6635, North Clark Street, Chicago, 60626, US",
    "lat": 42.002762,
    "lng": -87.6720083,
    "phone": "+1-773-973-4752",
    "website": null,
    "source": "osm",
    "source_id": "6412818878",
    "search_term": "East African restaurant",
    "country": "US",
    "city": "Chicago"
  },
  {
    "name": "Selam Ethiopian Kitchen",
    "type": "restaurant",
    "address": "4543, North Broadway, Chicago, 60640, US",
    "lat": 41.9648383,
    "lng": -87.6568564,
    "phone": null,
    "website": "https://www.selamkitchen.com/",
    "source": "osm",
    "source_id": "7387891262",
    "search_term": "East African restaurant",
    "country": "US",
    "city": "Chicago"
  },
  {
    "name": "Axum Ethiopian",
    "type": "restaurant",
    "address": "5844, North Broadway, Chicago, 60660, US",
    "lat": 41.9883114,
    "lng": -87.6604658,
    "phone": "+1-773-654-3038",
    "website": "https://axumethiopiancuisine.com/",
    "source": "osm",
    "source_id": "8981002831",
    "search_term": "East African restaurant",
    "country": "US",
    "city": "Chicago"
  },
  {
    "name": "Michuu Ethiopian Restaurant",
    "type": "restaurant",
    "address": "1023, West Wilson Avenue, Chicago, 60640, US",
    "lat": 41.9653003,
    "lng": -87.655815,
    "phone": "+1-773-654-3175",
    "website": "https://www.michuuethiopianrestaurant.com/",
    "source": "osm",
    "source_id": "10605258193",
    "search_term": "East African restaurant",
    "country": "US",
    "city": "Chicago"
  },
  {
    "name": "Safari Somali Cuisine",
    "type": "restaurant",
    "address": "North Ridge Avenue, Chicago, 60660, US",
    "lat": 41.9960703,
    "lng": -87.6757846,
    "phone": null,
    "website": null,
    "source": "osm",
    "source_id": "11406366891",
    "search_term": "East African restaurant",
    "country": "US",
    "city": "Chicago"
  },
  {
    "name": "Hodan Cuisine",
    "type": "restaurant",
    "address": "1831, Central Avenue Northeast, Minneapolis, 55418, US",
    "lat": 45.0070337,
    "lng": -93.2471597,
    "phone": null,
    "website": null,
    "source": "osm",
    "source_id": "2575042732",
    "search_term": "African restaurant",
    "country": "US",
    "city": "Minneapolis"
  },
  {
    "name": "Dilla's Ethiopian Restaurant",
    "type": "restaurant",
    "address": "1813, Riverside Avenue, Minneapolis, 55454, US",
    "lat": 44.9697608,
    "lng": -93.2465448,
    "phone": null,
    "website": "https://dillasethiopianrestaurant.com/",
    "source": "osm",
    "source_id": "3429589748",
    "search_term": "African restaurant",
    "country": "US",
    "city": "Minneapolis"
  },
  {
    "name": "Daalo Pizza & Grill",
    "type": "restaurant",
    "address": "2627, Nicollet Avenue South, Minneapolis, 55408, US",
    "lat": 44.9540533,
    "lng": -93.277701,
    "phone": "+1-612-353-5911",
    "website": null,
    "source": "osm",
    "source_id": "4619841625",
    "search_term": "African restaurant",
    "country": "US",
    "city": "Minneapolis"
  },
  {
    "name": "Mama Ti's African Kitchen",
    "type": "restaurant",
    "address": "7800, Zane Avenue North, Brooklyn Park, 55443, US",
    "lat": 45.0949196,
    "lng": -93.3559532,
    "phone": "+1-763-566-1009",
    "website": null,
    "source": "osm",
    "source_id": "4880909695",
    "search_term": "African restaurant",
    "country": "US",
    "city": "Minneapolis"
  },
  {
    "name": "Lucy's Market & Carry-out",
    "type": "restaurant",
    "address": "3749, Cedar Avenue South, 55407, US",
    "lat": 44.9344405,
    "lng": -93.2471616,
    "phone": "+1 612 886 3748",
    "website": "https://www.lucymarket.com/",
    "source": "osm",
    "source_id": "5284189658",
    "search_term": "African restaurant",
    "country": "US",
    "city": "Minneapolis"
  },
  {
    "name": "Dilla Sports Bar & Ethiopian Restaurant",
    "type": "restaurant",
    "address": "1623, University Avenue, Saint Paul, 55104, US",
    "lat": 44.9558794,
    "lng": -93.1690824,
    "phone": null,
    "website": null,
    "source": "osm",
    "source_id": "7205080256",
    "search_term": "African restaurant",
    "country": "US",
    "city": "Minneapolis"
  },
  {
    "name": "Five Star Cafe",
    "type": "restaurant",
    "address": "2469, 7th Street West, Saint Paul, 55116, US",
    "lat": 44.9026536,
    "lng": -93.1704332,
    "phone": "+1-651-696-0909",
    "website": "https://www.facebook.com/FiveStarcafeMN/",
    "source": "osm",
    "source_id": "8463924061",
    "search_term": "African restaurant",
    "country": "US",
    "city": "Minneapolis"
  },
  {
    "name": "Katar River Restaurant & Bakery",
    "type": "restaurant",
    "address": "US",
    "lat": 44.9525332,
    "lng": -93.2350433,
    "phone": null,
    "website": null,
    "source": "osm",
    "source_id": "8989134424",
    "search_term": "African restaurant",
    "country": "US",
    "city": "Minneapolis"
  },
  {
    "name": "New Cedar",
    "type": "restaurant",
    "address": "510, Cedar Avenue South, Minneapolis, 55454, US",
    "lat": 44.968303,
    "lng": -93.247457,
    "phone": "+16129990222",
    "website": null,
    "source": "osm",
    "source_id": "11194024453",
    "search_term": "African restaurant",
    "country": "US",
    "city": "Minneapolis"
  },
  {
    "name": "Moroccan Flavors",
    "type": "restaurant",
    "address": "US",
    "lat": 44.9486585,
    "lng": -93.2606363,
    "phone": "+1-612-404-4037",
    "website": "https://midtownglobalmarket.org/merchants",
    "source": "osm",
    "source_id": "11964434368",
    "search_term": "African restaurant",
    "country": "US",
    "city": "Minneapolis"
  },
  {
    "name": "Liido Restaurant",
    "type": "restaurant",
    "address": "128, West Lake Street, Minneapolis, 55408, US",
    "lat": 44.9487599,
    "lng": -93.2810771,
    "phone": "+1-612-238-0768",
    "website": "https://liidomn.com/",
    "source": "osm",
    "source_id": "12184575730",
    "search_term": "African restaurant",
    "country": "US",
    "city": "Minneapolis"
  },
  {
    "name": "Tawakal Restaurant",
    "type": "restaurant",
    "address": "12609, 55337, US",
    "lat": 44.7734079,
    "lng": -93.2767751,
    "phone": "+1 952-500-8954",
    "website": null,
    "source": "osm",
    "source_id": "12635846101",
    "search_term": "African restaurant",
    "country": "US",
    "city": "Minneapolis"
  },
  {
    "name": "Bole Ethiopian Cuisine",
    "type": "restaurant",
    "address": "15609, Grove Circle North, 55369, US",
    "lat": 45.1342195,
    "lng": -93.4777833,
    "phone": null,
    "website": "https://boleethiopiancuisine.com/",
    "source": "osm",
    "source_id": "12962069401",
    "search_term": "African restaurant",
    "country": "US",
    "city": "Minneapolis"
  },
  {
    "name": "Mama Safia's Kitchen",
    "type": "restaurant",
    "address": "55407, US",
    "lat": 44.9485002,
    "lng": -93.2638082,
    "phone": "+1-612-353-6322",
    "website": "https://www.mamasafiakitchen.com",
    "source": "osm",
    "source_id": "13095321401",
    "search_term": "African restaurant",
    "country": "US",
    "city": "Minneapolis"
  },
  {
    "name": "Hamdi Restaurant",
    "type": "restaurant",
    "address": "818, East Lake Street, Minneapolis, 55407, US",
    "lat": 44.9486028,
    "lng": -93.2619222,
    "phone": "+1-612-930-0360",
    "website": "https://hamdirestaurantmn.com/",
    "source": "osm",
    "source_id": "13524557621",
    "search_term": "African restaurant",
    "country": "US",
    "city": "Minneapolis"
  },
  {
    "name": "Iftin Restaurant",
    "type": "restaurant",
    "address": "2401, East Franklin Avenue, Minneapolis, 55406, US",
    "lat": 44.9625916,
    "lng": -93.2375663,
    "phone": "+1 612-339-5485",
    "website": "https://iftinrestaurant.com/",
    "source": "osm",
    "source_id": "79290622",
    "search_term": "African restaurant",
    "country": "US",
    "city": "Minneapolis"
  },
  {
    "name": "Lulu EthioVegan Cuisine",
    "type": "restaurant",
    "address": "12, East Franklin Avenue, Minneapolis, 55404, US",
    "lat": 44.9628402,
    "lng": -93.2770757,
    "phone": null,
    "website": null,
    "source": "osm",
    "source_id": "119006197",
    "search_term": "African restaurant",
    "country": "US",
    "city": "Minneapolis"
  },
  {
    "name": "Kuuso Restaurant",
    "type": "restaurant",
    "address": "946, University Avenue West, St Paul, 55104, US",
    "lat": 44.9554297,
    "lng": -93.140146,
    "phone": "+1 612-315-3279",
    "website": null,
    "source": "osm",
    "source_id": "152767347",
    "search_term": "African restaurant",
    "country": "US",
    "city": "Minneapolis"
  },
  {
    "name": "Skylight Restaurant",
    "type": "restaurant",
    "address": "1135, 1st Avenue East, Shakopee, 55379, US",
    "lat": 44.8010006,
    "lng": -93.5118429,
    "phone": "+19524797846",
    "website": "https://www.skylight-restaurant.com/",
    "source": "osm",
    "source_id": "890848646",
    "search_term": "African restaurant",
    "country": "US",
    "city": "Minneapolis"
  },
  {
    "name": "Red Sea Restaurant",
    "type": "restaurant",
    "address": "320, Cedar Avenue South, Minneapolis, 55454, US",
    "lat": 44.9707988,
    "lng": -93.247515,
    "phone": "+1-612-333-1644",
    "website": "https://theredseampls.com/",
    "source": "osm",
    "source_id": "966144000",
    "search_term": "African restaurant",
    "country": "US",
    "city": "Minneapolis"
  },
  {
    "name": "African Safari Halal Meat Market & Deli",
    "type": "grocery_store",
    "address": "US",
    "lat": 44.9481783,
    "lng": -93.2700853,
    "phone": null,
    "website": null,
    "source": "osm",
    "source_id": "1102910021",
    "search_term": "Nigerian grocery",
    "country": "US",
    "city": "Minneapolis"
  },
  {
    "name": "Harvest African Market",
    "type": "grocery_store",
    "address": "3373, Coon Rapids Boulevard Northwest, Coon Rapids, 55433, US",
    "lat": 45.1787329,
    "lng": -93.3521142,
    "phone": null,
    "website": null,
    "source": "osm",
    "source_id": "5548249921",
    "search_term": "Nigerian grocery",
    "country": "US",
    "city": "Minneapolis"
  },
  {
    "name": "Adom Universal African Market",
    "type": "grocery_store",
    "address": "1909, Tamarack Circle North, Columbus, 43229, US",
    "lat": 40.077309,
    "lng": -82.9663199,
    "phone": null,
    "website": null,
    "source": "osm",
    "source_id": "7858945352",
    "search_term": "African supermarket",
    "country": "US",
    "city": "Columbus"
  },
  {
    "name": "Glory African Supermarket",
    "type": "grocery_store",
    "address": "4734, East Main Street, Columbus, 43213, US",
    "lat": 39.9559052,
    "lng": -82.8718195,
    "phone": null,
    "website": null,
    "source": "osm",
    "source_id": "9725652799",
    "search_term": "African supermarket",
    "country": "US",
    "city": "Columbus"
  },
  {
    "name": "Ohio Best African Market",
    "type": "grocery_store",
    "address": "2007, East Dublin Granville Road, Columbus, 43229, US",
    "lat": 40.0859458,
    "lng": -82.9636517,
    "phone": null,
    "website": null,
    "source": "osm",
    "source_id": "9731266651",
    "search_term": "African supermarket",
    "country": "US",
    "city": "Columbus"
  },
  {
    "name": "Dirdawa Cafe",
    "type": "restaurant",
    "address": "US",
    "lat": 33.9610532,
    "lng": -118.3757916,
    "phone": null,
    "website": null,
    "source": "osm",
    "source_id": "5572696821",
    "search_term": "East African restaurant",
    "country": "US",
    "city": "Los Angeles"
  },
  {
    "name": "Rahel Ethiopian Vegan Cuisine",
    "type": "restaurant",
    "address": "1047, South Fairfax Avenue, 90019, US",
    "lat": 34.056827,
    "lng": -118.3646359,
    "phone": "+1-323-937-8401",
    "website": "https://rahelvegancuisine.com/",
    "source": "osm",
    "source_id": "11704581569",
    "search_term": "East African restaurant",
    "country": "US",
    "city": "Los Angeles"
  },
  {
    "name": "Lalibela Ethiopian",
    "type": "restaurant",
    "address": "1025, South Fairfax Avenue, Los Angeles, 90019, US",
    "lat": 34.0573865,
    "lng": -118.3643717,
    "phone": "+1-323-965-1025",
    "website": null,
    "source": "osm",
    "source_id": "12207470747",
    "search_term": "East African restaurant",
    "country": "US",
    "city": "Los Angeles"
  },
  {
    "name": "Merkato",
    "type": "restaurant",
    "address": "1036 1/2, South Fairfax Avenue, 90019, US",
    "lat": 34.0570257,
    "lng": -118.3641978,
    "phone": null,
    "website": null,
    "source": "osm",
    "source_id": "13704561845",
    "search_term": "East African restaurant",
    "country": "US",
    "city": "Los Angeles"
  },
  {
    "name": "Messob",
    "type": "restaurant",
    "address": "1041, South Fairfax Avenue, 90019, US",
    "lat": 34.0570043,
    "lng": -118.364553,
    "phone": null,
    "website": null,
    "source": "osm",
    "source_id": "13704561853",
    "search_term": "East African restaurant",
    "country": "US",
    "city": "Los Angeles"
  },
  {
    "name": "Buna Ethiopian Restaurant",
    "type": "restaurant",
    "address": "1034, South Fairfax Avenue, 90019, US",
    "lat": 34.0571633,
    "lng": -118.3641462,
    "phone": "+1-323-964-9731",
    "website": "https://bunaethiopianmarket.com",
    "source": "osm",
    "source_id": "13704561854",
    "search_term": "East African restaurant",
    "country": "US",
    "city": "Los Angeles"
  },
  {
    "name": "Rosalind's Ethiopian Restaurant",
    "type": "restaurant",
    "address": "South Fairfax Avenue, 90019, US",
    "lat": 34.0568954,
    "lng": -118.364262,
    "phone": null,
    "website": null,
    "source": "osm",
    "source_id": "13704561857",
    "search_term": "East African restaurant",
    "country": "US",
    "city": "Los Angeles"
  },
  {
    "name": "Teranga",
    "type": "restaurant",
    "address": "US",
    "lat": 37.781793,
    "lng": -122.415884,
    "phone": "+1 415 8798372",
    "website": "http://www.terangajuice.com/",
    "source": "osm",
    "source_id": "9649588766",
    "search_term": "Senegalese restaurant",
    "country": "US",
    "city": "Oakland"
  },
  {
    "name": "Swahili Spot",
    "type": "restaurant",
    "address": "1327, Peralta Street, Oakland, US",
    "lat": 37.8112236,
    "lng": -122.2942705,
    "phone": null,
    "website": "https://www.swahilispot.com/",
    "source": "osm",
    "source_id": "11028160326",
    "search_term": "Tanzanian restaurant",
    "country": "US",
    "city": "Oakland"
  },
  {
    "name": "La Marsa",
    "type": "restaurant",
    "address": "454, Geary Street, San Francisco, US",
    "lat": 37.787159,
    "lng": -122.410773,
    "phone": null,
    "website": "https://www.lamarsasf.com/",
    "source": "osm",
    "source_id": "9659739153",
    "search_term": "Tunisian restaurant",
    "country": "US",
    "city": "Oakland"
  },
  {
    "name": "Gola",
    "type": "restaurant",
    "address": "819, Valencia Street, San Francisco, 94110, US",
    "lat": 37.7597669,
    "lng": -122.421264,
    "phone": null,
    "website": null,
    "source": "osm",
    "source_id": "11035090764",
    "search_term": "Tunisian restaurant",
    "country": "US",
    "city": "Oakland"
  },
  {
    "name": "Marrakesh",
    "type": "restaurant",
    "address": "2334, 2nd Avenue, Seattle, 98121, US",
    "lat": 47.6148335,
    "lng": -122.3466632,
    "phone": "+1-206-956-0500",
    "website": "https://marrakeshseattle.com/",
    "source": "osm",
    "source_id": "2327659446",
    "search_term": "Moroccan restaurant",
    "country": "US",
    "city": "Seattle"
  },
  {
    "name": "Mama Gee's",
    "type": "restaurant",
    "address": "509, Beatties Ford Road, Charlotte, 28216, US",
    "lat": 35.2473678,
    "lng": -80.85699,
    "phone": null,
    "website": null,
    "source": "osm",
    "source_id": "324415837",
    "search_term": "Ghanaian restaurant",
    "country": "US",
    "city": "Charlotte"
  },
  {
    "name": "African Palace",
    "type": "restaurant",
    "address": "977, Bloor Street West, Toronto, CA",
    "lat": 43.6611155,
    "lng": -79.4290265,
    "phone": "+1-416-539-0259",
    "website": null,
    "source": "osm",
    "source_id": "836352012",
    "search_term": "East African restaurant",
    "country": "CA",
    "city": "Toronto"
  },
  {
    "name": "Ethiopian House Restaurant",
    "type": "restaurant",
    "address": "4, Irwin Avenue, Toronto, CA",
    "lat": 43.666698,
    "lng": -79.3857689,
    "phone": "+1-416-923-5438",
    "website": "https://www.ethiopianhouse.com/",
    "source": "osm",
    "source_id": "3590016806",
    "search_term": "East African restaurant",
    "country": "CA",
    "city": "Toronto"
  },
  {
    "name": "Lalibela Restaurant",
    "type": "restaurant",
    "address": "869, Bloor Street West, Toronto, M6G 1M4, CA",
    "lat": 43.6620434,
    "lng": -79.4247979,
    "phone": "+1-416-535-6615",
    "website": "https://lalibelaethiopianrestaurant.com/",
    "source": "osm",
    "source_id": "4802815163",
    "search_term": "East African restaurant",
    "country": "CA",
    "city": "Toronto"
  },
  {
    "name": "Nunu",
    "type": "restaurant",
    "address": "1178, Queen Street West, Toronto, M6J 1J2, CA",
    "lat": 43.6429321,
    "lng": -79.4256961,
    "phone": "+1 647 394 4044",
    "website": "https://www.nunuethiopian.com/",
    "source": "osm",
    "source_id": "6181451955",
    "search_term": "East African restaurant",
    "country": "CA",
    "city": "Toronto"
  },
  {
    "name": "Al-Aruba Restaurant",
    "type": "restaurant",
    "address": "CA",
    "lat": 43.725454,
    "lng": -79.5514568,
    "phone": null,
    "website": null,
    "source": "osm",
    "source_id": "6333522640",
    "search_term": "East African restaurant",
    "country": "CA",
    "city": "Toronto"
  },
  {
    "name": "Christie Pits Pub",
    "type": "restaurant",
    "address": "CA",
    "lat": 43.6627115,
    "lng": -79.4227919,
    "phone": null,
    "website": null,
    "source": "osm",
    "source_id": "6340610371",
    "search_term": "East African restaurant",
    "country": "CA",
    "city": "Toronto"
  },
  {
    "name": "Selam Restaurant & Lounge",
    "type": "restaurant",
    "address": "812, Bloor Street West, Toronto, CA",
    "lat": 43.6627309,
    "lng": -79.4227208,
    "phone": null,
    "website": null,
    "source": "osm",
    "source_id": "6340610372",
    "search_term": "East African restaurant",
    "country": "CA",
    "city": "Toronto"
  },
  {
    "name": "Arada Bar and Restaurant",
    "type": "restaurant",
    "address": "965, Bloor Street West, Toronto, M6H 1L7, CA",
    "lat": 43.6611795,
    "lng": -79.4286807,
    "phone": "+1 4165165535",
    "website": null,
    "source": "osm",
    "source_id": "6344006137",
    "search_term": "East African restaurant",
    "country": "CA",
    "city": "Toronto"
  },
  {
    "name": "Sahan Restaurant",
    "type": "restaurant",
    "address": "CA",
    "lat": 43.7454526,
    "lng": -79.296752,
    "phone": null,
    "website": null,
    "source": "osm",
    "source_id": "7751916021",
    "search_term": "East African restaurant",
    "country": "CA",
    "city": "Toronto"
  },
  {
    "name": "Hoyo's Restaurant",
    "type": "restaurant",
    "address": "2598, Eglinton Avenue East, M1K 2R9, CA",
    "lat": 43.7360787,
    "lng": -79.2529969,
    "phone": "+1 416 266 4696",
    "website": null,
    "source": "osm",
    "source_id": "8636711931",
    "search_term": "East African restaurant",
    "country": "CA",
    "city": "Toronto"
  },
  {
    "name": "Kera Restaurant",
    "type": "restaurant",
    "address": "CA",
    "lat": 43.6888063,
    "lng": -79.2974597,
    "phone": null,
    "website": null,
    "source": "osm",
    "source_id": "12986702968",
    "search_term": "East African restaurant",
    "country": "CA",
    "city": "Toronto"
  },
  {
    "name": "Hirut",
    "type": "restaurant",
    "address": "CA",
    "lat": 43.6856213,
    "lng": -79.3138733,
    "phone": null,
    "website": null,
    "source": "osm",
    "source_id": "12995038538",
    "search_term": "East African restaurant",
    "country": "CA",
    "city": "Toronto"
  },
  {
    "name": "La Vegan",
    "type": "restaurant",
    "address": "CA",
    "lat": 43.6829125,
    "lng": -79.3264329,
    "phone": null,
    "website": null,
    "source": "osm",
    "source_id": "12997418450",
    "search_term": "East African restaurant",
    "country": "CA",
    "city": "Toronto"
  },
  {
    "name": "Abugida",
    "type": "restaurant",
    "address": "CA",
    "lat": 43.682312,
    "lng": -79.3276362,
    "phone": null,
    "website": null,
    "source": "osm",
    "source_id": "12997929536",
    "search_term": "East African restaurant",
    "country": "CA",
    "city": "Toronto"
  },
  {
    "name": "Rendez-Vous",
    "type": "restaurant",
    "address": "CA",
    "lat": 43.6826678,
    "lng": -79.3275727,
    "phone": null,
    "website": null,
    "source": "osm",
    "source_id": "12997929540",
    "search_term": "East African restaurant",
    "country": "CA",
    "city": "Toronto"
  },
  {
    "name": "Wazema",
    "type": "restaurant",
    "address": "CA",
    "lat": 43.6824574,
    "lng": -79.3285665,
    "phone": null,
    "website": null,
    "source": "osm",
    "source_id": "12997929548",
    "search_term": "East African restaurant",
    "country": "CA",
    "city": "Toronto"
  },
  {
    "name": "Blue Nile",
    "type": "restaurant",
    "address": "CA",
    "lat": 43.6819773,
    "lng": -79.330817,
    "phone": null,
    "website": null,
    "source": "osm",
    "source_id": "13007739902",
    "search_term": "East African restaurant",
    "country": "CA",
    "city": "Toronto"
  },
  {
    "name": "Asmera",
    "type": "restaurant",
    "address": "CA",
    "lat": 43.6818716,
    "lng": -79.3312968,
    "phone": null,
    "website": null,
    "source": "osm",
    "source_id": "13007739910",
    "search_term": "East African restaurant",
    "country": "CA",
    "city": "Toronto"
  },
  {
    "name": "Lalibela Cuisine",
    "type": "restaurant",
    "address": "CA",
    "lat": 43.6817694,
    "lng": -79.3317525,
    "phone": null,
    "website": null,
    "source": "osm",
    "source_id": "13007739917",
    "search_term": "East African restaurant",
    "country": "CA",
    "city": "Toronto"
  },
  {
    "name": "Abyssinia",
    "type": "restaurant",
    "address": "CA",
    "lat": 43.6800848,
    "lng": -79.3398234,
    "phone": null,
    "website": null,
    "source": "osm",
    "source_id": "13011543842",
    "search_term": "East African restaurant",
    "country": "CA",
    "city": "Toronto"
  },
  {
    "name": "Wehliye Restaurant",
    "type": "restaurant",
    "address": "272, Parliament Street, CA",
    "lat": 43.6583532,
    "lng": -79.3657195,
    "phone": null,
    "website": null,
    "source": "osm",
    "source_id": "13040383417",
    "search_term": "East African restaurant",
    "country": "CA",
    "city": "Toronto"
  },
  {
    "name": "Wanaag Restaurant",
    "type": "restaurant",
    "address": "224, Parliament Street, CA",
    "lat": 43.6571528,
    "lng": -79.3652402,
    "phone": "+1-416-771-1511",
    "website": null,
    "source": "osm",
    "source_id": "13040383420",
    "search_term": "East African restaurant",
    "country": "CA",
    "city": "Toronto"
  },
  {
    "name": "King Solomon and Queen of Sheba",
    "type": "restaurant",
    "address": "360, Queen Street East, CA",
    "lat": 43.6558418,
    "lng": -79.3639126,
    "phone": "+1416-368-9002",
    "website": null,
    "source": "osm",
    "source_id": "13040383431",
    "search_term": "East African restaurant",
    "country": "CA",
    "city": "Toronto"
  },
  {
    "name": "Le Petit S\u00e9n\u00e9gal",
    "type": "restaurant",
    "address": "5176, Chemin Queen Mary, Montr\u00e9al, H3W 1X5, CA",
    "lat": 45.4847334,
    "lng": -73.6279049,
    "phone": null,
    "website": null,
    "source": "osm",
    "source_id": "9214719305",
    "search_term": "Senegalese restaurant",
    "country": "CA",
    "city": "Montreal"
  },
  {
    "name": "\u00d4 Tajine",
    "type": "restaurant",
    "address": "3687, Rue Ontario Est, Montr\u00e9al, H1W 1R9, CA",
    "lat": 45.5461422,
    "lng": -73.5443498,
    "phone": null,
    "website": null,
    "source": "osm",
    "source_id": "10678394845",
    "search_term": "Moroccan restaurant",
    "country": "CA",
    "city": "Montreal"
  },
  {
    "name": "Mijana",
    "type": "restaurant",
    "address": "CA",
    "lat": 45.5765707,
    "lng": -73.6816855,
    "phone": null,
    "website": null,
    "source": "osm",
    "source_id": "11145371636",
    "search_term": "Moroccan restaurant",
    "country": "CA",
    "city": "Montreal"
  },
  {
    "name": "Al Mashhour",
    "type": "restaurant",
    "address": "CA",
    "lat": 45.5442806,
    "lng": -73.7413144,
    "phone": null,
    "website": null,
    "source": "osm",
    "source_id": "11453954323",
    "search_term": "Moroccan restaurant",
    "country": "CA",
    "city": "Montreal"
  },
  {
    "name": "Nili",
    "type": "restaurant",
    "address": "255, Avenue Saint-Viateur, CA",
    "lat": 45.5227782,
    "lng": -73.6018603,
    "phone": "+1 514 379 1400",
    "website": "https://www.nilimtl.com/",
    "source": "osm",
    "source_id": "11808517569",
    "search_term": "Moroccan restaurant",
    "country": "CA",
    "city": "Montreal"
  },
  {
    "name": "Menthe et Couscous",
    "type": "restaurant",
    "address": "361, Rue \u00c9mery, Montr\u00e9al, CA",
    "lat": 45.5147856,
    "lng": -73.5636346,
    "phone": "+1 514 842 3717",
    "website": "https://mentheetcouscous.ca/",
    "source": "osm",
    "source_id": "11973463824",
    "search_term": "Moroccan restaurant",
    "country": "CA",
    "city": "Montreal"
  },
  {
    "name": "Evi Gourmet",
    "type": "restaurant",
    "address": "2301, Rue Ontario Est, CA",
    "lat": 45.5305742,
    "lng": -73.5551167,
    "phone": null,
    "website": "https://evigourmet.com/",
    "source": "osm",
    "source_id": "12029150917",
    "search_term": "Moroccan restaurant",
    "country": "CA",
    "city": "Montreal"
  },
  {
    "name": "Salon Mogador",
    "type": "restaurant",
    "address": "310, Rue Beaubien Est, CA",
    "lat": 45.5329315,
    "lng": -73.6058325,
    "phone": "+1 514 279 3530",
    "website": "https://www.mogador.ca/",
    "source": "osm",
    "source_id": "12059393705",
    "search_term": "Moroccan restaurant",
    "country": "CA",
    "city": "Montreal"
  },
  {
    "name": "Ad-Deyafa",
    "type": "restaurant",
    "address": "CA",
    "lat": 45.5822186,
    "lng": -73.5803244,
    "phone": null,
    "website": null,
    "source": "osm",
    "source_id": "12118461161",
    "search_term": "Moroccan restaurant",
    "country": "CA",
    "city": "Montreal"
  },
  {
    "name": "Moul Chouaya",
    "type": "restaurant",
    "address": "CA",
    "lat": 45.5121566,
    "lng": -73.6797732,
    "phone": null,
    "website": null,
    "source": "osm",
    "source_id": "12410993271",
    "search_term": "Moroccan restaurant",
    "country": "CA",
    "city": "Montreal"
  },
  {
    "name": "African Choice Market",
    "type": "grocery_store",
    "address": "3604, 52 Avenue NW, Calgary, T2L 1V9, CA",
    "lat": 51.1015799,
    "lng": -114.1382038,
    "phone": "+1-403-210-0988",
    "website": "https://africanchoicemarket.vpweb.ca/",
    "source": "osm",
    "source_id": "4740609395",
    "search_term": "African food store",
    "country": "CA",
    "city": "Calgary"
  },
  {
    "name": "Agape African Store",
    "type": "grocery_store",
    "address": "CA",
    "lat": 50.9152203,
    "lng": -114.0649893,
    "phone": "+1-403-453-0023",
    "website": null,
    "source": "osm",
    "source_id": "4818289548",
    "search_term": "African food store",
    "country": "CA",
    "city": "Calgary"
  },
  {
    "name": "Awash Ethiopian Restaurant",
    "type": "restaurant",
    "address": "CA",
    "lat": 53.5705264,
    "lng": -113.5480111,
    "phone": null,
    "website": null,
    "source": "osm",
    "source_id": "304154064",
    "search_term": "African restaurant",
    "country": "CA",
    "city": "Edmonton"
  },
  {
    "name": "Zembaba 2",
    "type": "restaurant",
    "address": "CA",
    "lat": 53.5705194,
    "lng": -113.5387231,
    "phone": null,
    "website": null,
    "source": "osm",
    "source_id": "9724744251",
    "search_term": "African restaurant",
    "country": "CA",
    "city": "Edmonton"
  },
  {
    "name": "Mesob Habesha Fusion",
    "type": "restaurant",
    "address": "10546, 109 Street NW, Edmonton, T5H 3B2, CA",
    "lat": 53.5488752,
    "lng": -113.5087365,
    "phone": null,
    "website": null,
    "source": "osm",
    "source_id": "10816936889",
    "search_term": "African restaurant",
    "country": "CA",
    "city": "Edmonton"
  },
  {
    "name": "Langano Skies",
    "type": "restaurant",
    "address": "9906, 72 Avenue NW, Edmonton, T6E 0Z3, CA",
    "lat": 53.5087517,
    "lng": -113.4866145,
    "phone": "+1-780-432-3334",
    "website": "https://langanoskies.com/",
    "source": "osm",
    "source_id": "11943155660",
    "search_term": "African restaurant",
    "country": "CA",
    "city": "Edmonton"
  },
  {
    "name": "Axum Ethiopian Restaurant",
    "type": "restaurant",
    "address": "CA",
    "lat": 49.2815418,
    "lng": -123.0777932,
    "phone": "+1-604-253-2986",
    "website": null,
    "source": "osm",
    "source_id": "971131061",
    "search_term": "Ethiopian restaurant",
    "country": "CA",
    "city": "Vancouver"
  },
  {
    "name": "Harambe",
    "type": "restaurant",
    "address": "2149, Commercial Drive, Vancouver, CA",
    "lat": 49.2655847,
    "lng": -123.0699772,
    "phone": "+1-604-216-1060",
    "website": "https://harambeethiopianrestaurant.com/",
    "source": "osm",
    "source_id": "3894506201",
    "search_term": "Ethiopian restaurant",
    "country": "CA",
    "city": "Vancouver"
  },
  {
    "name": "Gojo Little Africa Cafe",
    "type": "restaurant",
    "address": "2838, Commercial Drive, Vancouver, V5N 4C6, CA",
    "lat": 49.2591279,
    "lng": -123.0695903,
    "phone": "+1-604-708-5394",
    "website": "https://www.gojocafe.com/",
    "source": "osm",
    "source_id": "4198311600",
    "search_term": "Ethiopian restaurant",
    "country": "CA",
    "city": "Vancouver"
  },
  {
    "name": "Fassil Ethiopian Restaurant",
    "type": "restaurant",
    "address": "CA",
    "lat": 49.2623161,
    "lng": -123.0882767,
    "phone": "+1-604-879-2001",
    "website": "https://www.fassil.ca/",
    "source": "osm",
    "source_id": "4642541592",
    "search_term": "Ethiopian restaurant",
    "country": "CA",
    "city": "Vancouver"
  },
  {
    "name": "Abyssinia",
    "type": "restaurant",
    "address": "7546, Edmonds Street, CA",
    "lat": 49.2223983,
    "lng": -122.94378,
    "phone": "+1-778-397-1121",
    "website": "https://www.abyssinia-restaurant.ca/",
    "source": "osm",
    "source_id": "9896710908",
    "search_term": "Ethiopian restaurant",
    "country": "CA",
    "city": "Vancouver"
  },
  {
    "name": "GG's African Caribbean Market",
    "type": "grocery_store",
    "address": "10625, King George Boulevard, Surrey, CA",
    "lat": 49.1956582,
    "lng": -122.8456588,
    "phone": null,
    "website": null,
    "source": "osm",
    "source_id": "1101476137",
    "search_term": "Nigerian grocery",
    "country": "CA",
    "city": "Vancouver"
  },
  {
    "name": "Harman's Cafe",
    "type": "restaurant",
    "address": "CA",
    "lat": 49.8963957,
    "lng": -97.1575688,
    "phone": null,
    "website": null,
    "source": "osm",
    "source_id": "1421615692",
    "search_term": "East African restaurant",
    "country": "CA",
    "city": "Winnipeg"
  },
  {
    "name": "Kokeb",
    "type": "restaurant",
    "address": "266, Edmonton Street, CA",
    "lat": 49.8916576,
    "lng": -97.1469886,
    "phone": null,
    "website": null,
    "source": "osm",
    "source_id": "10038030661",
    "search_term": "East African restaurant",
    "country": "CA",
    "city": "Winnipeg"
  },
  {
    "name": "Mesob",
    "type": "restaurant",
    "address": "CA",
    "lat": 49.8782019,
    "lng": -97.1459474,
    "phone": null,
    "website": null,
    "source": "osm",
    "source_id": "11214340484",
    "search_term": "East African restaurant",
    "country": "CA",
    "city": "Winnipeg"
  },
  {
    "name": "African Food General",
    "type": "grocery_store",
    "address": "CA",
    "lat": 49.8959059,
    "lng": -97.1414696,
    "phone": null,
    "website": null,
    "source": "osm",
    "source_id": "10799764560",
    "search_term": "West African market",
    "country": "CA",
    "city": "Winnipeg"
  },
  {
    "name": "African Food General",
    "type": "grocery_store",
    "address": "584, Pembina Highway, CA",
    "lat": 49.8653979,
    "lng": -97.1459026,
    "phone": "+12044149226",
    "website": null,
    "source": "osm",
    "source_id": "11988025078",
    "search_term": "West African market",
    "country": "CA",
    "city": "Winnipeg"
  },
  {
    "name": "K & F Restaurant",
    "type": "restaurant",
    "address": "GB",
    "lat": 51.4836731,
    "lng": -0.093949,
    "phone": null,
    "website": null,
    "source": "osm",
    "source_id": "322975294",
    "search_term": "African restaurant",
    "country": "GB",
    "city": "London"
  },
  {
    "name": "Kokeb",
    "type": "restaurant",
    "address": "GB",
    "lat": 51.5466884,
    "lng": -0.115721,
    "phone": null,
    "website": null,
    "source": "osm",
    "source_id": "333205462",
    "search_term": "African restaurant",
    "country": "GB",
    "city": "London"
  },
  {
    "name": "Enish",
    "type": "restaurant",
    "address": "3, Berners Street, London, W1T 3LD, GB",
    "lat": 51.5163911,
    "lng": -0.1360022,
    "phone": "+44 20 3771 8665",
    "website": "https://www.enish.co.uk",
    "source": "osm",
    "source_id": "384759684",
    "search_term": "African restaurant",
    "country": "GB",
    "city": "London"
  },
  {
    "name": "Nigerian Kitchen",
    "type": "restaurant",
    "address": "GB",
    "lat": 51.5646341,
    "lng": -0.1051425,
    "phone": null,
    "website": null,
    "source": "osm",
    "source_id": "393523274",
    "search_term": "African restaurant",
    "country": "GB",
    "city": "London"
  },
  {
    "name": "84 West Brasserie & Grill",
    "type": "restaurant",
    "address": "82-84, Cricklewood Broadway, London, NW2 3EL, GB",
    "lat": 51.5545352,
    "lng": -0.2124647,
    "phone": "+44 20 8452 4689",
    "website": "https://www.84west.co.uk/index.html",
    "source": "osm",
    "source_id": "411096510",
    "search_term": "African restaurant",
    "country": "GB",
    "city": "London"
  },
  {
    "name": "D'Den",
    "type": "restaurant",
    "address": "47, Cricklewood Broadway, GB",
    "lat": 51.5533076,
    "lng": -0.2116543,
    "phone": null,
    "website": null,
    "source": "osm",
    "source_id": "411115280",
    "search_term": "African restaurant",
    "country": "GB",
    "city": "London"
  },
  {
    "name": "Abyssinia",
    "type": "restaurant",
    "address": "9, Cricklewood Broadway, GB",
    "lat": 51.5525452,
    "lng": -0.2106267,
    "phone": null,
    "website": null,
    "source": "osm",
    "source_id": "411115315",
    "search_term": "African restaurant",
    "country": "GB",
    "city": "London"
  },
  {
    "name": "Sidi Maarouf",
    "type": "restaurant",
    "address": "56, Edgware Road, London, GB",
    "lat": 51.5147599,
    "lng": -0.1622068,
    "phone": null,
    "website": null,
    "source": "osm",
    "source_id": "514778963",
    "search_term": "African restaurant",
    "country": "GB",
    "city": "London"
  },
  {
    "name": "Moroccan Sahara Restaurant",
    "type": "restaurant",
    "address": "39, Hereford Road, London, GB",
    "lat": 51.5149041,
    "lng": -0.1939946,
    "phone": "+44 20 7792 0770",
    "website": "https://moroccansahararestaurant.jimdo.com/",
    "source": "osm",
    "source_id": "582764943",
    "search_term": "African restaurant",
    "country": "GB",
    "city": "London"
  },
  {
    "name": "Akoko",
    "type": "restaurant",
    "address": "21, Berners Street, London, W1T 3LP, GB",
    "lat": 51.5176864,
    "lng": -0.1368424,
    "phone": "+44 20 7323 0593",
    "website": "https://akoko.co.uk/",
    "source": "osm",
    "source_id": "691728906",
    "search_term": "African restaurant",
    "country": "GB",
    "city": "London"
  },
  {
    "name": "Mosob",
    "type": "restaurant",
    "address": "339, Harrow Road, London, W9 2HP, GB",
    "lat": 51.5238863,
    "lng": -0.2009701,
    "phone": "+44 20 7266 2012",
    "website": "https://mosob.co.uk/",
    "source": "osm",
    "source_id": "715707706",
    "search_term": "African restaurant",
    "country": "GB",
    "city": "London"
  },
  {
    "name": "Queen of Sheba",
    "type": "restaurant",
    "address": "GB",
    "lat": 51.5522417,
    "lng": -0.1408887,
    "phone": null,
    "website": null,
    "source": "osm",
    "source_id": "1242549289",
    "search_term": "African restaurant",
    "country": "GB",
    "city": "London"
  },
  {
    "name": "Yeshi Ethopian Cuisine",
    "type": "restaurant",
    "address": "328, Hornsey Road, London, GB",
    "lat": 51.5632174,
    "lng": -0.1179411,
    "phone": "+44 20 7272 2062",
    "website": "https://yeshi-ethiopian-cuisine.business.site/",
    "source": "osm",
    "source_id": "1253198031",
    "search_term": "African restaurant",
    "country": "GB",
    "city": "London"
  },
  {
    "name": "Addis",
    "type": "restaurant",
    "address": "40-42, Caledonian Road, London, N1 9DT, GB",
    "lat": 51.5320065,
    "lng": -0.120454,
    "phone": "+44 20 7278 0679",
    "website": "http://www.addisrestaurant.co.uk",
    "source": "osm",
    "source_id": "1293749895",
    "search_term": "African restaurant",
    "country": "GB",
    "city": "London"
  },
  {
    "name": "Chishuru",
    "type": "restaurant",
    "address": "3, Great Titchfield Street, London, W1W 8AX, GB",
    "lat": 51.5166206,
    "lng": -0.1398848,
    "phone": null,
    "website": "https://www.chishuru.com/",
    "source": "osm",
    "source_id": "1412069427",
    "search_term": "African restaurant",
    "country": "GB",
    "city": "London"
  },
  {
    "name": "Jerk N Jollof",
    "type": "restaurant",
    "address": "37, Manor Road, Wallington, SM6 0BW, GB",
    "lat": 51.3661482,
    "lng": -0.1526652,
    "phone": null,
    "website": null,
    "source": "osm",
    "source_id": "1649376484",
    "search_term": "African restaurant",
    "country": "GB",
    "city": "London"
  },
  {
    "name": "Canaan Restaurant",
    "type": "restaurant",
    "address": "163, Camberwell Road, London, SE5 0HB, GB",
    "lat": 51.4799719,
    "lng": -0.0941066,
    "phone": null,
    "website": null,
    "source": "osm",
    "source_id": "1843985393",
    "search_term": "African restaurant",
    "country": "GB",
    "city": "London"
  },
  {
    "name": "Enish",
    "type": "restaurant",
    "address": "91, Camberwell Road, GB",
    "lat": 51.4824143,
    "lng": -0.0943375,
    "phone": "+44 2079676261",
    "website": null,
    "source": "osm",
    "source_id": "1843994316",
    "search_term": "African restaurant",
    "country": "GB",
    "city": "London"
  },
  {
    "name": "Red Sea",
    "type": "restaurant",
    "address": "85, Camberwell Road, GB",
    "lat": 51.4825805,
    "lng": -0.0943545,
    "phone": null,
    "website": null,
    "source": "osm",
    "source_id": "1843996212",
    "search_term": "African restaurant",
    "country": "GB",
    "city": "London"
  },
  {
    "name": "Legacy",
    "type": "restaurant",
    "address": "53, Camberwell Road, London, SE5 0EZ, GB",
    "lat": 51.4834173,
    "lng": -0.0941615,
    "phone": null,
    "website": null,
    "source": "osm",
    "source_id": "1843999774",
    "search_term": "African restaurant",
    "country": "GB",
    "city": "London"
  },
  {
    "name": "Abokobi Ghanaian Restaurant",
    "type": "restaurant",
    "address": "Camberwell Road, London, GB",
    "lat": 51.4837824,
    "lng": -0.0938879,
    "phone": null,
    "website": null,
    "source": "osm",
    "source_id": "1844004049",
    "search_term": "African restaurant",
    "country": "GB",
    "city": "London"
  },
  {
    "name": "Adulis",
    "type": "restaurant",
    "address": "44-46, Brixton Road, London, SW9 6BT, GB",
    "lat": 51.4794426,
    "lng": -0.1119094,
    "phone": null,
    "website": "https://www.adulis.co.uk/",
    "source": "osm",
    "source_id": "3041504107",
    "search_term": "African restaurant",
    "country": "GB",
    "city": "London"
  },
  {
    "name": "Dahlak",
    "type": "restaurant",
    "address": "256-258, Brixton Road, London, SW9 6AQ, GB",
    "lat": 51.4711009,
    "lng": -0.1128227,
    "phone": null,
    "website": null,
    "source": "osm",
    "source_id": "3041743281",
    "search_term": "African restaurant",
    "country": "GB",
    "city": "London"
  },
  {
    "name": "Safari Restaurant",
    "type": "restaurant",
    "address": "31, Falcon Road, London, SW11 2PH, GB",
    "lat": 51.4690957,
    "lng": -0.1709815,
    "phone": null,
    "website": null,
    "source": "osm",
    "source_id": "3230593776",
    "search_term": "African restaurant",
    "country": "GB",
    "city": "London"
  },
  {
    "name": "Royal Restaurant",
    "type": "restaurant",
    "address": "GB",
    "lat": 51.5081902,
    "lng": -0.3379682,
    "phone": null,
    "website": null,
    "source": "osm",
    "source_id": "3261911001",
    "search_term": "African restaurant",
    "country": "GB",
    "city": "London"
  },
  {
    "name": "Mamounia Lounge",
    "type": "restaurant",
    "address": "136, Brompton Road, GB",
    "lat": 51.4986642,
    "lng": -0.1658841,
    "phone": "+44 20 7581 7777",
    "website": "https://mamounialounge.com/",
    "source": "osm",
    "source_id": "3357928807",
    "search_term": "African restaurant",
    "country": "GB",
    "city": "London"
  },
  {
    "name": "Segen Eritrean Ethopian Bar & Restaurant",
    "type": "restaurant",
    "address": "129, High Street Harlesden, London, NW10 4TR, GB",
    "lat": 51.5354405,
    "lng": -0.2436359,
    "phone": null,
    "website": null,
    "source": "osm",
    "source_id": "3547713794",
    "search_term": "African restaurant",
    "country": "GB",
    "city": "London"
  },
  {
    "name": "Shaka Zulu",
    "type": "restaurant",
    "address": "Chalk Farm Road, London, NW1 8AB, GB",
    "lat": 51.5415304,
    "lng": -0.1467846,
    "phone": null,
    "website": null,
    "source": "osm",
    "source_id": "3738698955",
    "search_term": "African restaurant",
    "country": "GB",
    "city": "London"
  },
  {
    "name": "Hamer Ethiopia",
    "type": "restaurant",
    "address": "92, Goldhawk Road, London, W12 8HD, GB",
    "lat": 51.5021011,
    "lng": -0.2289438,
    "phone": "+44 20 3489 6118",
    "website": null,
    "source": "osm",
    "source_id": "3770568661",
    "search_term": "African restaurant",
    "country": "GB",
    "city": "London"
  },
  {
    "name": "Zula",
    "type": "restaurant",
    "address": "78, Goldhawk Road, London, W12 8HA, GB",
    "lat": 51.502224,
    "lng": -0.2283083,
    "phone": null,
    "website": null,
    "source": "osm",
    "source_id": "3770653457",
    "search_term": "African restaurant",
    "country": "GB",
    "city": "London"
  },
  {
    "name": "Flamingo",
    "type": "restaurant",
    "address": "31, Goldhawk Road, London, W12 8QQ, GB",
    "lat": 51.5026978,
    "lng": -0.2246224,
    "phone": "+44 20 8740 7865",
    "website": "http://flamingo-restaurant.com/",
    "source": "osm",
    "source_id": "3772036265",
    "search_term": "African restaurant",
    "country": "GB",
    "city": "London"
  },
  {
    "name": "Red Sea",
    "type": "restaurant",
    "address": "386, Uxbridge Road, London, W12 7LL, GB",
    "lat": 51.5065896,
    "lng": -0.2352058,
    "phone": "+44 20 8749 6888",
    "website": null,
    "source": "osm",
    "source_id": "3781068758",
    "search_term": "African restaurant",
    "country": "GB",
    "city": "London"
  },
  {
    "name": "Zeret Kitchen",
    "type": "restaurant",
    "address": "216-218, Camberwell Road, London, SE5 0ED, GB",
    "lat": 51.4785626,
    "lng": -0.0947526,
    "phone": "+44 20 7701 8587",
    "website": "http://zeretkitchen.co.uk",
    "source": "osm",
    "source_id": "4207903538",
    "search_term": "African restaurant",
    "country": "GB",
    "city": "London"
  },
  {
    "name": "Rhoda",
    "type": "restaurant",
    "address": "56, Brixton Road, London, SW9 6BS, GB",
    "lat": 51.4790798,
    "lng": -0.1120629,
    "phone": null,
    "website": null,
    "source": "osm",
    "source_id": "4232592325",
    "search_term": "African restaurant",
    "country": "GB",
    "city": "London"
  },
  {
    "name": "Squires",
    "type": "restaurant",
    "address": "6, Beckton Road, London, E16 1EW, GB",
    "lat": 51.5177236,
    "lng": 0.0135359,
    "phone": "+44 20 7476 5591",
    "website": "https://www.squiresuk.com/",
    "source": "osm",
    "source_id": "4558605660",
    "search_term": "African restaurant",
    "country": "GB",
    "city": "London"
  },
  {
    "name": "Tanjia",
    "type": "restaurant",
    "address": "403, High Street, London, E15 4QZ, GB",
    "lat": 51.5395694,
    "lng": 0.0001295,
    "phone": null,
    "website": null,
    "source": "osm",
    "source_id": "4609797698",
    "search_term": "African restaurant",
    "country": "GB",
    "city": "London"
  },
  {
    "name": "taNgia",
    "type": "restaurant",
    "address": "108, Mitcham Road, London, GB",
    "lat": 51.4254615,
    "lng": -0.1648609,
    "phone": null,
    "website": null,
    "source": "osm",
    "source_id": "4757068223",
    "search_term": "African restaurant",
    "country": "GB",
    "city": "London"
  },
  {
    "name": "La Scenta",
    "type": "restaurant",
    "address": "GB",
    "lat": 51.5591413,
    "lng": -0.1210753,
    "phone": null,
    "website": null,
    "source": "osm",
    "source_id": "5178055421",
    "search_term": "African restaurant",
    "country": "GB",
    "city": "London"
  },
  {
    "name": "Al Fassia",
    "type": "restaurant",
    "address": "27, St Leonards Road, Windsor, SL4 3BP, GB",
    "lat": 51.4792497,
    "lng": -0.612298,
    "phone": "+44 1753 855370",
    "website": "https://www.alfassiarestaurant.com/",
    "source": "osm",
    "source_id": "5206664229",
    "search_term": "African restaurant",
    "country": "GB",
    "city": "London"
  },
  {
    "name": "Andu Ethiopian Vegan Caf\u00e9",
    "type": "restaurant",
    "address": "528, Kingsland Road, London, E8 4AH, GB",
    "lat": 51.5445381,
    "lng": -0.0757094,
    "phone": "+44 20 7254 1780",
    "website": "https://www.anduvegancafe.com",
    "source": "osm",
    "source_id": "5248732621",
    "search_term": "African restaurant",
    "country": "GB",
    "city": "London"
  },
  {
    "name": "Kaabo Lounge",
    "type": "restaurant",
    "address": "25, Calderwood Street, London, SE18 6JF, GB",
    "lat": 51.4910343,
    "lng": 0.064724,
    "phone": "+44 20 3375 3327",
    "website": "https://www.kaabolounge.co.uk",
    "source": "osm",
    "source_id": "5316962367",
    "search_term": "African restaurant",
    "country": "GB",
    "city": "London"
  },
  {
    "name": "Fourth Garden",
    "type": "restaurant",
    "address": "33, Camberwell Road, London, SE5 0EZ, GB",
    "lat": 51.4838248,
    "lng": -0.0938591,
    "phone": null,
    "website": null,
    "source": "osm",
    "source_id": "5362992296",
    "search_term": "African restaurant",
    "country": "GB",
    "city": "London"
  },
  {
    "name": "EMT Restaurant",
    "type": "restaurant",
    "address": "GB",
    "lat": 51.4709887,
    "lng": -0.1234531,
    "phone": null,
    "website": null,
    "source": "osm",
    "source_id": "5368213508",
    "search_term": "African restaurant",
    "country": "GB",
    "city": "London"
  },
  {
    "name": "Imma Kandey",
    "type": "restaurant",
    "address": "18, Lee High Road, London, SE13 5PB, GB",
    "lat": 51.4588639,
    "lng": -0.0020432,
    "phone": null,
    "website": null,
    "source": "osm",
    "source_id": "5574583511",
    "search_term": "African restaurant",
    "country": "GB",
    "city": "London"
  },
  {
    "name": "Tiwa 'N' Tiwa",
    "type": "restaurant",
    "address": "34b, Peckham High Street, London, SE15 5DP, GB",
    "lat": 51.4731458,
    "lng": -0.0714606,
    "phone": "+44 20 3737 5331",
    "website": null,
    "source": "osm",
    "source_id": "5613907703",
    "search_term": "African restaurant",
    "country": "GB",
    "city": "London"
  },
  {
    "name": "Cous Cous Cafe",
    "type": "restaurant",
    "address": "7, Porchester Gardens, London, W2 4DB, GB",
    "lat": 51.5136942,
    "lng": -0.1881283,
    "phone": "+44 20 7727 6597",
    "website": null,
    "source": "osm",
    "source_id": "6023146191",
    "search_term": "African restaurant",
    "country": "GB",
    "city": "London"
  },
  {
    "name": "Habesha Village",
    "type": "restaurant",
    "address": "Coldharbour Lane, London, SW9 8PS, GB",
    "lat": 51.4625475,
    "lng": -0.1120547,
    "phone": null,
    "website": null,
    "source": "osm",
    "source_id": "6312941152",
    "search_term": "African restaurant",
    "country": "GB",
    "city": "London"
  },
  {
    "name": "Ewenla Lounge",
    "type": "restaurant",
    "address": "GB",
    "lat": 51.4738277,
    "lng": -0.0731123,
    "phone": null,
    "website": null,
    "source": "osm",
    "source_id": "6383492452",
    "search_term": "African restaurant",
    "country": "GB",
    "city": "London"
  },
  {
    "name": "Mama Cook",
    "type": "restaurant",
    "address": "1, High Street, Feltham, TW13 4DX, GB",
    "lat": 51.4405065,
    "lng": -0.4154172,
    "phone": null,
    "website": null,
    "source": "osm",
    "source_id": "7008411045",
    "search_term": "African restaurant",
    "country": "GB",
    "city": "London"
  },
  {
    "name": "Beza vegan food",
    "type": "restaurant",
    "address": "8A, Sayer Street, GB",
    "lat": 51.4919795,
    "lng": -0.0964642,
    "phone": null,
    "website": null,
    "source": "osm",
    "source_id": "7103157886",
    "search_term": "African restaurant",
    "country": "GB",
    "city": "London"
  },
  {
    "name": "Pinnacle Grill & Restaurant",
    "type": "restaurant",
    "address": "GB",
    "lat": 51.606643,
    "lng": 0.2189849,
    "phone": "+44 1708 606 633",
    "website": null,
    "source": "osm",
    "source_id": "7141796049",
    "search_term": "African restaurant",
    "country": "GB",
    "city": "London"
  },
  {
    "name": "Zayane",
    "type": "restaurant",
    "address": "91, Golborne Road, London, GB",
    "lat": 51.5215248,
    "lng": -0.2087496,
    "phone": "+44 20 8960 1137",
    "website": "https://zayanerestaurant.com/",
    "source": "osm",
    "source_id": "7245595205",
    "search_term": "African restaurant",
    "country": "GB",
    "city": "London"
  },
  {
    "name": "Meskerem",
    "type": "restaurant",
    "address": "152, Seven Sisters Road, London, GB",
    "lat": 51.561141,
    "lng": -0.1129753,
    "phone": null,
    "website": null,
    "source": "osm",
    "source_id": "8015008698",
    "search_term": "African restaurant",
    "country": "GB",
    "city": "London"
  },
  {
    "name": "Addis Kitchen",
    "type": "restaurant",
    "address": "244, Old Kent Road, London, SE1 5UB, GB",
    "lat": 51.4892649,
    "lng": -0.0789468,
    "phone": null,
    "website": null,
    "source": "osm",
    "source_id": "8232615817",
    "search_term": "African restaurant",
    "country": "GB",
    "city": "London"
  },
  {
    "name": "Ramad",
    "type": "restaurant",
    "address": "157, Uxbridge Road, London, W13 9AU, GB",
    "lat": 51.5112653,
    "lng": -0.3164068,
    "phone": null,
    "website": null,
    "source": "osm",
    "source_id": "8551853837",
    "search_term": "African restaurant",
    "country": "GB",
    "city": "London"
  },
  {
    "name": "Caf\u00e9 Luca",
    "type": "restaurant",
    "address": "17, Devonshire Square, London, EC2M 4SQ, GB",
    "lat": 51.5167675,
    "lng": -0.079732,
    "phone": "+44 20 8075 8721",
    "website": "https://www.cafe-luca.co.uk/",
    "source": "osm",
    "source_id": "9240067517",
    "search_term": "African restaurant",
    "country": "GB",
    "city": "London"
  },
  {
    "name": "Connies Special Authentic Ghanaian",
    "type": "restaurant",
    "address": "85-87, Woodgrange Road, London, E7 0EP, GB",
    "lat": 51.5502718,
    "lng": 0.0249117,
    "phone": null,
    "website": null,
    "source": "osm",
    "source_id": "9385959430",
    "search_term": "African restaurant",
    "country": "GB",
    "city": "London"
  },
  {
    "name": "Balageru",
    "type": "restaurant",
    "address": "22, Blackstock Road, London, GB",
    "lat": 51.5639934,
    "lng": -0.1035333,
    "phone": null,
    "website": null,
    "source": "osm",
    "source_id": "9488365474",
    "search_term": "African restaurant",
    "country": "GB",
    "city": "London"
  },
  {
    "name": "Blue Nile",
    "type": "restaurant",
    "address": "GB",
    "lat": 51.5619225,
    "lng": -0.1106264,
    "phone": null,
    "website": null,
    "source": "osm",
    "source_id": "9519348865",
    "search_term": "African restaurant",
    "country": "GB",
    "city": "London"
  },
  {
    "name": "HDMona",
    "type": "restaurant",
    "address": "GB",
    "lat": 51.5621309,
    "lng": -0.1100135,
    "phone": null,
    "website": null,
    "source": "osm",
    "source_id": "9519425913",
    "search_term": "African restaurant",
    "country": "GB",
    "city": "London"
  },
  {
    "name": "Chuku\u2018s",
    "type": "restaurant",
    "address": "274, High Road, London, N15 4AJ, GB",
    "lat": 51.5858409,
    "lng": -0.0714338,
    "phone": null,
    "website": "https://www.chukuslondon.co.uk/",
    "source": "osm",
    "source_id": "9828359094",
    "search_term": "African restaurant",
    "country": "GB",
    "city": "London"
  },
  {
    "name": "Enish",
    "type": "restaurant",
    "address": "228, Lewisham High Street, London, SE13 6JU, GB",
    "lat": 51.459198,
    "lng": -0.0124661,
    "phone": null,
    "website": null,
    "source": "osm",
    "source_id": "10059771185",
    "search_term": "African restaurant",
    "country": "GB",
    "city": "London"
  },
  {
    "name": "Nikki's Place",
    "type": "restaurant",
    "address": "282, Barking Road, London, E13 8HR, GB",
    "lat": 51.5203587,
    "lng": 0.0187847,
    "phone": null,
    "website": null,
    "source": "osm",
    "source_id": "10171642047",
    "search_term": "African restaurant",
    "country": "GB",
    "city": "London"
  },
  {
    "name": "Tasty",
    "type": "restaurant",
    "address": "109, Trafalgar Road, London, SE10 9TS, GB",
    "lat": 51.4843088,
    "lng": 0.0016032,
    "phone": null,
    "website": null,
    "source": "osm",
    "source_id": "10253353968",
    "search_term": "African restaurant",
    "country": "GB",
    "city": "London"
  },
  {
    "name": "Agelgil",
    "type": "restaurant",
    "address": "327, Caledonian Road, London, N1 1DW, GB",
    "lat": 51.5419323,
    "lng": -0.1174196,
    "phone": null,
    "website": null,
    "source": "osm",
    "source_id": "10680993332",
    "search_term": "African restaurant",
    "country": "GB",
    "city": "London"
  },
  {
    "name": "Leila",
    "type": "restaurant",
    "address": "5, Uxbridge Road, W5 3NN, GB",
    "lat": 51.5096289,
    "lng": -0.2860931,
    "phone": null,
    "website": null,
    "source": "osm",
    "source_id": "11009039133",
    "search_term": "African restaurant",
    "country": "GB",
    "city": "London"
  },
  {
    "name": "Tasty",
    "type": "restaurant",
    "address": "7, Brownhill Road, London, SE6 2EF, GB",
    "lat": 51.4458352,
    "lng": -0.0189442,
    "phone": null,
    "website": null,
    "source": "osm",
    "source_id": "11023448445",
    "search_term": "African restaurant",
    "country": "GB",
    "city": "London"
  },
  {
    "name": "Ketegna",
    "type": "restaurant",
    "address": "350, South Lambeth Road, London, SW8 1UQ, GB",
    "lat": 51.4728566,
    "lng": -0.1224481,
    "phone": null,
    "website": null,
    "source": "osm",
    "source_id": "11037406398",
    "search_term": "African restaurant",
    "country": "GB",
    "city": "London"
  },
  {
    "name": "A2 Lounge",
    "type": "restaurant",
    "address": "77a-79, Rushey Green, GB",
    "lat": 51.4481212,
    "lng": -0.0174382,
    "phone": "+44 20 8695 9822",
    "website": null,
    "source": "osm",
    "source_id": "11038350133",
    "search_term": "African restaurant",
    "country": "GB",
    "city": "London"
  },
  {
    "name": "Planet 68",
    "type": "restaurant",
    "address": "68B, Rushey Green, London, SE6 4JD, GB",
    "lat": 51.4479818,
    "lng": -0.018066,
    "phone": "+44 20 8690 3131",
    "website": null,
    "source": "osm",
    "source_id": "11079684736",
    "search_term": "African restaurant",
    "country": "GB",
    "city": "London"
  },
  {
    "name": "St. Gabriel injera",
    "type": "restaurant",
    "address": "GB",
    "lat": 51.4770504,
    "lng": -0.1099136,
    "phone": "+44  207 820 000",
    "website": null,
    "source": "osm",
    "source_id": "11090324332",
    "search_term": "African restaurant",
    "country": "GB",
    "city": "London"
  },
  {
    "name": "Harar",
    "type": "restaurant",
    "address": "49, South Lambeth Road, London, SW8 1RH, GB",
    "lat": 51.4822329,
    "lng": -0.1241323,
    "phone": "+44 20 7735 8915",
    "website": "https://hararrestaurant.co.uk/",
    "source": "osm",
    "source_id": "11113835447",
    "search_term": "African restaurant",
    "country": "GB",
    "city": "London"
  },
  {
    "name": "JiL Fresh Cuisine",
    "type": "restaurant",
    "address": "16, Coldharbour Lane, London, SE5 9PR, GB",
    "lat": 51.4713384,
    "lng": -0.0939604,
    "phone": "+44 20 4568 6254",
    "website": null,
    "source": "osm",
    "source_id": "11225122516",
    "search_term": "African restaurant",
    "country": "GB",
    "city": "London"
  },
  {
    "name": "Island Buka",
    "type": "restaurant",
    "address": "160-162, Deptford High Street, London, GB",
    "lat": 51.4796571,
    "lng": -0.026011,
    "phone": null,
    "website": null,
    "source": "osm",
    "source_id": "11244670480",
    "search_term": "African restaurant",
    "country": "GB",
    "city": "London"
  },
  {
    "name": "Monika",
    "type": "restaurant",
    "address": "13-14, Deptford Broadway, London, SE8 4PA, GB",
    "lat": 51.4749294,
    "lng": -0.0248205,
    "phone": null,
    "website": "https://monikarestaurants.com/",
    "source": "osm",
    "source_id": "11331506281",
    "search_term": "African restaurant",
    "country": "GB",
    "city": "London"
  },
  {
    "name": "JoJo's kitchen",
    "type": "restaurant",
    "address": "GB",
    "lat": 51.5610275,
    "lng": -0.098681,
    "phone": null,
    "website": null,
    "source": "osm",
    "source_id": "11923055618",
    "search_term": "African restaurant",
    "country": "GB",
    "city": "London"
  },
  {
    "name": "Maru's Bhajia House",
    "type": "restaurant",
    "address": "230, Ealing Road, Wembley, HA0 4QL, GB",
    "lat": 51.5438753,
    "lng": -0.297204,
    "phone": "+442089036771",
    "website": "https://maru-bhajia.com/",
    "source": "osm",
    "source_id": "11990875166",
    "search_term": "African restaurant",
    "country": "GB",
    "city": "London"
  },
  {
    "name": "Lulu's",
    "type": "restaurant",
    "address": "The Mall, London, E15 1XE, GB",
    "lat": 51.5418896,
    "lng": -0.0001234,
    "phone": null,
    "website": null,
    "source": "osm",
    "source_id": "12057817988",
    "search_term": "African restaurant",
    "country": "GB",
    "city": "London"
  },
  {
    "name": "Som Star",
    "type": "restaurant",
    "address": "146, High Street Harlesden, London, NW10 4SP, GB",
    "lat": 51.5352813,
    "lng": -0.2438754,
    "phone": null,
    "website": null,
    "source": "osm",
    "source_id": "12188126764",
    "search_term": "African restaurant",
    "country": "GB",
    "city": "London"
  },
  {
    "name": "Duniya",
    "type": "restaurant",
    "address": "234, High Street Harlesden, London, NW10 4TD, GB",
    "lat": 51.5332557,
    "lng": -0.240841,
    "phone": null,
    "website": null,
    "source": "osm",
    "source_id": "12199188785",
    "search_term": "African restaurant",
    "country": "GB",
    "city": "London"
  },
  {
    "name": "Marrakech Delight",
    "type": "restaurant",
    "address": "13, Church Lane, London, E11 1HG, GB",
    "lat": 51.5683075,
    "lng": 0.0097069,
    "phone": null,
    "website": "https://www.marrakechdelightgrill.co.uk/",
    "source": "osm",
    "source_id": "12232978047",
    "search_term": "African restaurant",
    "country": "GB",
    "city": "London"
  },
  {
    "name": "All Tribe",
    "type": "restaurant",
    "address": "26, Plumstead Road, London, SE18 7BZ, GB",
    "lat": 51.4907647,
    "lng": 0.0728108,
    "phone": null,
    "website": null,
    "source": "osm",
    "source_id": "12309543153",
    "search_term": "African restaurant",
    "country": "GB",
    "city": "London"
  },
  {
    "name": "Hohob",
    "type": "restaurant",
    "address": "356, High Road Leyton, London, E10 6QE, GB",
    "lat": 51.5620696,
    "lng": -0.0102311,
    "phone": null,
    "website": null,
    "source": "osm",
    "source_id": "12496307484",
    "search_term": "African restaurant",
    "country": "GB",
    "city": "London"
  },
  {
    "name": "Banana African Restaurant  & Bar",
    "type": "restaurant",
    "address": "GB",
    "lat": 51.5963032,
    "lng": -0.0682909,
    "phone": null,
    "website": null,
    "source": "osm",
    "source_id": "12540385186",
    "search_term": "African restaurant",
    "country": "GB",
    "city": "London"
  },
  {
    "name": "Suuyar",
    "type": "restaurant",
    "address": "24a, Peckham Rye, London, SE15 4JR, GB",
    "lat": 51.4659129,
    "lng": -0.0666075,
    "phone": null,
    "website": null,
    "source": "osm",
    "source_id": "12569551430",
    "search_term": "African restaurant",
    "country": "GB",
    "city": "London"
  },
  {
    "name": "Hayatt Lounge",
    "type": "restaurant",
    "address": "22, Camberwell Church Street, London, SE5 8QU, GB",
    "lat": 51.4739023,
    "lng": -0.0911631,
    "phone": null,
    "website": null,
    "source": "osm",
    "source_id": "12572448553",
    "search_term": "African restaurant",
    "country": "GB",
    "city": "London"
  },
  {
    "name": "Enish",
    "type": "restaurant",
    "address": "46, Camberwell Church Street, London, SE5 8QZ, GB",
    "lat": 51.47372,
    "lng": -0.0897437,
    "phone": null,
    "website": null,
    "source": "osm",
    "source_id": "12572448565",
    "search_term": "African restaurant",
    "country": "GB",
    "city": "London"
  },
  {
    "name": "Habesha",
    "type": "restaurant",
    "address": "41, Camberwell Church Street, London, SE5 8TR, GB",
    "lat": 51.4739273,
    "lng": -0.0896077,
    "phone": null,
    "website": null,
    "source": "osm",
    "source_id": "12572448576",
    "search_term": "African restaurant",
    "country": "GB",
    "city": "London"
  },
  {
    "name": "Moyo Nigerian and Japenese Restaurant Hendon",
    "type": "restaurant",
    "address": "57, The Burroughs, London, NW4 4AX, GB",
    "lat": 51.5873622,
    "lng": -0.2299139,
    "phone": "+44 20 8062 5205",
    "website": "https://moyolondon.co.uk/",
    "source": "osm",
    "source_id": "12638523502",
    "search_term": "African restaurant",
    "country": "GB",
    "city": "London"
  },
  {
    "name": "Alhaji SUYA Peckham",
    "type": "restaurant",
    "address": "15, Peckham Park Road, London, SE15 6TR, GB",
    "lat": 51.4826735,
    "lng": -0.0653552,
    "phone": "+44 20 4568 0091",
    "website": "https://www.alhajisuya.com/",
    "source": "osm",
    "source_id": "12640675901",
    "search_term": "African restaurant",
    "country": "GB",
    "city": "London"
  },
  {
    "name": "Lolak Afrique Peckham",
    "type": "restaurant",
    "address": "38, Choumert Road, London, SE15 4SE, GB",
    "lat": 51.4680882,
    "lng": -0.0689734,
    "phone": "+44 20 7277 8912",
    "website": null,
    "source": "osm",
    "source_id": "12645405803",
    "search_term": "African restaurant",
    "country": "GB",
    "city": "London"
  },
  {
    "name": "The Flygerians - Peckham",
    "type": "restaurant",
    "address": "14, Bournemouth Close, London, SE15 4PB, GB",
    "lat": 51.4680107,
    "lng": -0.0664763,
    "phone": null,
    "website": "https://www.theflygerians.com/",
    "source": "osm",
    "source_id": "12645448501",
    "search_term": "African restaurant",
    "country": "GB",
    "city": "London"
  },
  {
    "name": "Papi's Grill Restaurant & Bar",
    "type": "restaurant",
    "address": "338, New Cross Road, London, SE14 6AG, GB",
    "lat": 51.4756537,
    "lng": -0.0348663,
    "phone": "+44 7312 094980",
    "website": "https://www.papisgrill.co.uk/",
    "source": "osm",
    "source_id": "12877477677",
    "search_term": "African restaurant",
    "country": "GB",
    "city": "London"
  },
  {
    "name": "Rita's Katering",
    "type": "restaurant",
    "address": "70a, Bellegrove Road, Welling, DA16 3PY, GB",
    "lat": 51.4632888,
    "lng": 0.1032884,
    "phone": "+44 20 8637 5783",
    "website": null,
    "source": "osm",
    "source_id": "12903229329",
    "search_term": "African restaurant",
    "country": "GB",
    "city": "London"
  },
  {
    "name": "Waakye Joint",
    "type": "restaurant",
    "address": "440, Streatham High Road, London, SW16 3PX, GB",
    "lat": 51.421239,
    "lng": -0.1289573,
    "phone": "+44 20 8679 9055",
    "website": "https://safari-london.business.site/",
    "source": "osm",
    "source_id": "12979925714",
    "search_term": "African restaurant",
    "country": "GB",
    "city": "London"
  },
  {
    "name": "Sabiib",
    "type": "restaurant",
    "address": "GB",
    "lat": 51.5066896,
    "lng": -0.2695754,
    "phone": null,
    "website": null,
    "source": "osm",
    "source_id": "13159405124",
    "search_term": "African restaurant",
    "country": "GB",
    "city": "London"
  },
  {
    "name": "Mesi's Kitchen",
    "type": "restaurant",
    "address": "128, Holloway Road, London, N7 8JE, GB",
    "lat": 51.5504877,
    "lng": -0.1090937,
    "phone": "+44 20 7018 2640",
    "website": "https://www.mesiskitchen.com",
    "source": "osm",
    "source_id": "32257855",
    "search_term": "African restaurant",
    "country": "GB",
    "city": "London"
  },
  {
    "name": "Squires",
    "type": "restaurant",
    "address": "285-287, Heathway, GB",
    "lat": 51.5423378,
    "lng": 0.1476247,
    "phone": null,
    "website": null,
    "source": "osm",
    "source_id": "122593825",
    "search_term": "African restaurant",
    "country": "GB",
    "city": "London"
  },
  {
    "name": "Pitanga",
    "type": "restaurant",
    "address": "220, North End Road, London, W14 9NX, GB",
    "lat": 51.4863416,
    "lng": -0.2032,
    "phone": null,
    "website": "https://www.pitangalondon.com/",
    "source": "osm",
    "source_id": "147338946",
    "search_term": "African restaurant",
    "country": "GB",
    "city": "London"
  },
  {
    "name": "Enish",
    "type": "restaurant",
    "address": "62, South End, Croydon, CR0 1DP, GB",
    "lat": 51.3654289,
    "lng": -0.099324,
    "phone": null,
    "website": null,
    "source": "osm",
    "source_id": "205406238",
    "search_term": "African restaurant",
    "country": "GB",
    "city": "London"
  },
  {
    "name": "Afrikana",
    "type": "restaurant",
    "address": "London, N7 6PN, GB",
    "lat": 51.5566491,
    "lng": -0.1172276,
    "phone": null,
    "website": null,
    "source": "osm",
    "source_id": "233810163",
    "search_term": "African restaurant",
    "country": "GB",
    "city": "London"
  },
  {
    "name": "Bakiin Restaurant",
    "type": "restaurant",
    "address": "Wembley, HA9 6AH, GB",
    "lat": 51.5538288,
    "lng": -0.2920206,
    "phone": "+44 20 8902 9853",
    "website": null,
    "source": "osm",
    "source_id": "247916332",
    "search_term": "African restaurant",
    "country": "GB",
    "city": "London"
  },
  {
    "name": "Kudu",
    "type": "restaurant",
    "address": "7, Moxon Street, London, W1U 4EP, GB",
    "lat": 51.5197113,
    "lng": -0.1523237,
    "phone": null,
    "website": "https://kuducollective.com",
    "source": "osm",
    "source_id": "276055540",
    "search_term": "African restaurant",
    "country": "GB",
    "city": "London"
  },
  {
    "name": "May Foods",
    "type": "restaurant",
    "address": "16C, Market Row, London, SW9 8LD, GB",
    "lat": 51.4617992,
    "lng": -0.1131145,
    "phone": null,
    "website": null,
    "source": "osm",
    "source_id": "321929826",
    "search_term": "African restaurant",
    "country": "GB",
    "city": "London"
  },
  {
    "name": "MTK African Restaurant",
    "type": "restaurant",
    "address": "91, GB",
    "lat": 51.4622445,
    "lng": -0.111671,
    "phone": null,
    "website": null,
    "source": "osm",
    "source_id": "324121477",
    "search_term": "African restaurant",
    "country": "GB",
    "city": "London"
  },
  {
    "name": "Little Marrakech",
    "type": "restaurant",
    "address": "31, Market Place, St Albans, AL3 5DL, GB",
    "lat": 51.7522834,
    "lng": -0.339486,
    "phone": "+44 1727 853569",
    "website": "http://www.littlemarrakech.co.uk/",
    "source": "osm",
    "source_id": "328076530",
    "search_term": "African restaurant",
    "country": "GB",
    "city": "London"
  },
  {
    "name": "Souk Bazaar",
    "type": "restaurant",
    "address": "27, Litchfield Street, London, WC2H 9NJ, GB",
    "lat": 51.5128787,
    "lng": -0.1283399,
    "phone": null,
    "website": "https://www.soukrestaurant.co.uk/",
    "source": "osm",
    "source_id": "349340731",
    "search_term": "African restaurant",
    "country": "GB",
    "city": "London"
  },
  {
    "name": "Marathon",
    "type": "restaurant",
    "address": "193A, Caledonian Road, London, N1 0SL, GB",
    "lat": 51.5368125,
    "lng": -0.1167747,
    "phone": null,
    "website": null,
    "source": "osm",
    "source_id": "356866947",
    "search_term": "African restaurant",
    "country": "GB",
    "city": "London"
  },
  {
    "name": "The Savanna",
    "type": "restaurant",
    "address": "Liverpool Street, London, EC2M 7PY, GB",
    "lat": 51.5182249,
    "lng": -0.0824157,
    "phone": null,
    "website": null,
    "source": "osm",
    "source_id": "434681394",
    "search_term": "African restaurant",
    "country": "GB",
    "city": "London"
  },
  {
    "name": "Keren View Restaurant",
    "type": "restaurant",
    "address": "201, Holloway Road, London, N7 8DJ, GB",
    "lat": 51.550713,
    "lng": -0.1099976,
    "phone": null,
    "website": null,
    "source": "osm",
    "source_id": "465305586",
    "search_term": "African restaurant",
    "country": "GB",
    "city": "London"
  },
  {
    "name": "280 Degrees",
    "type": "restaurant",
    "address": "280, London, NW6 2BY, GB",
    "lat": 51.5439273,
    "lng": -0.2001411,
    "phone": null,
    "website": "http://www.280degrees.com/",
    "source": "osm",
    "source_id": "473654244",
    "search_term": "African restaurant",
    "country": "GB",
    "city": "London"
  },
  {
    "name": "Tribe African Restaurant",
    "type": "restaurant",
    "address": "313, Evelyn Street, London, SE8 5RA, GB",
    "lat": 51.483901,
    "lng": -0.0308922,
    "phone": null,
    "website": null,
    "source": "osm",
    "source_id": "497274907",
    "search_term": "African restaurant",
    "country": "GB",
    "city": "London"
  },
  {
    "name": "Exceline Pan African Cuisine",
    "type": "restaurant",
    "address": "527-529, High Road Leytonstone, London, E11 4PB, GB",
    "lat": 51.5601604,
    "lng": 0.0076399,
    "phone": null,
    "website": null,
    "source": "osm",
    "source_id": "507095513",
    "search_term": "African restaurant",
    "country": "GB",
    "city": "London"
  },
  {
    "name": "QQ Grill Restaurant and Lounge",
    "type": "restaurant",
    "address": "331, Wick Road, London, E9 5DH, GB",
    "lat": 51.5450278,
    "lng": -0.0318845,
    "phone": null,
    "website": "https://www.qqlounge.com/",
    "source": "osm",
    "source_id": "507356560",
    "search_term": "African restaurant",
    "country": "GB",
    "city": "London"
  },
  {
    "name": "042",
    "type": "restaurant",
    "address": "885, High Road Leytonstone, London, E11 1HR, GB",
    "lat": 51.5708194,
    "lng": 0.0146999,
    "phone": null,
    "website": null,
    "source": "osm",
    "source_id": "511586582",
    "search_term": "African restaurant",
    "country": "GB",
    "city": "London"
  },
  {
    "name": "ENSH",
    "type": "restaurant",
    "address": "299, Finchley Road, London, GB",
    "lat": 51.5496395,
    "lng": -0.1821672,
    "phone": null,
    "website": null,
    "source": "osm",
    "source_id": "548327118",
    "search_term": "African restaurant",
    "country": "GB",
    "city": "London"
  },
  {
    "name": "Meimo",
    "type": "restaurant",
    "address": "69-70, Peascod Street, Windsor, SL4 1DE, GB",
    "lat": 51.4801174,
    "lng": -0.6118377,
    "phone": "+44 1753 862222",
    "website": null,
    "source": "osm",
    "source_id": "556866296",
    "search_term": "African restaurant",
    "country": "GB",
    "city": "London"
  },
  {
    "name": "Nim's Kitchen",
    "type": "restaurant",
    "address": "133, Copeland Road, London, SE15 3SN, GB",
    "lat": 51.4698138,
    "lng": -0.0660967,
    "phone": null,
    "website": null,
    "source": "osm",
    "source_id": "593469467",
    "search_term": "African restaurant",
    "country": "GB",
    "city": "London"
  },
  {
    "name": "Kay Viva",
    "type": "restaurant",
    "address": "45, West Ham Lane, London, E15 4PH, GB",
    "lat": 51.5395991,
    "lng": 0.0039234,
    "phone": null,
    "website": null,
    "source": "osm",
    "source_id": "612399169",
    "search_term": "African restaurant",
    "country": "GB",
    "city": "London"
  },
  {
    "name": "805",
    "type": "restaurant",
    "address": "805-809, Old Kent Road, London, SE15 1NX, GB",
    "lat": 51.4798829,
    "lng": -0.0568256,
    "phone": null,
    "website": null,
    "source": "osm",
    "source_id": "618581802",
    "search_term": "African restaurant",
    "country": "GB",
    "city": "London"
  },
  {
    "name": "Point One",
    "type": "restaurant",
    "address": "The Arcade, GB",
    "lat": 51.7631085,
    "lng": -0.2254749,
    "phone": null,
    "website": null,
    "source": "osm",
    "source_id": "678929411",
    "search_term": "African restaurant",
    "country": "GB",
    "city": "London"
  },
  {
    "name": "Temisan's Kitchen",
    "type": "restaurant",
    "address": "642, High Road Leyton, London, E10 6RN, GB",
    "lat": 51.5693611,
    "lng": -0.0080226,
    "phone": null,
    "website": null,
    "source": "osm",
    "source_id": "695599164",
    "search_term": "African restaurant",
    "country": "GB",
    "city": "London"
  },
  {
    "name": "\u00c9ko '77",
    "type": "restaurant",
    "address": "403-405, New Cross Road, London, SE14 6LA, GB",
    "lat": 51.4760412,
    "lng": -0.0333153,
    "phone": "+44 20 3648 9963",
    "website": "https://eko77.co.uk/",
    "source": "osm",
    "source_id": "729330024",
    "search_term": "African restaurant",
    "country": "GB",
    "city": "London"
  },
  {
    "name": "Tasty African",
    "type": "restaurant",
    "address": "25, Lowfield Street, Dartford, DA1 1EW, GB",
    "lat": 51.4434603,
    "lng": 0.2167093,
    "phone": null,
    "website": null,
    "source": "osm",
    "source_id": "823258745",
    "search_term": "African restaurant",
    "country": "GB",
    "city": "London"
  },
  {
    "name": "Emir African Cuisine and Lounge",
    "type": "restaurant",
    "address": "16, Chatsworth Road, London, E5 0LP, GB",
    "lat": 51.552192,
    "lng": -0.043893,
    "phone": "+44 20 3632 1172",
    "website": null,
    "source": "osm",
    "source_id": "851946037",
    "search_term": "African restaurant",
    "country": "GB",
    "city": "London"
  },
  {
    "name": "Number Four",
    "type": "restaurant",
    "address": "EN3 5BH, GB",
    "lat": 51.6583325,
    "lng": -0.0474803,
    "phone": null,
    "website": "https://number4restaurant.com/",
    "source": "osm",
    "source_id": "862792670",
    "search_term": "African restaurant",
    "country": "GB",
    "city": "London"
  },
  {
    "name": "Rhapsodiz",
    "type": "restaurant",
    "address": "EN8 7BU, GB",
    "lat": 51.6841936,
    "lng": -0.0325841,
    "phone": null,
    "website": "http://rhapsodiz.co.uk/",
    "source": "osm",
    "source_id": "867963723",
    "search_term": "African restaurant",
    "country": "GB",
    "city": "London"
  },
  {
    "name": "Bronze Royale",
    "type": "restaurant",
    "address": "319, Romford Road, London, E7 9HA, GB",
    "lat": 51.5465611,
    "lng": 0.0246381,
    "phone": null,
    "website": null,
    "source": "osm",
    "source_id": "874060444",
    "search_term": "African restaurant",
    "country": "GB",
    "city": "London"
  },
  {
    "name": "Taste House Africa",
    "type": "restaurant",
    "address": "1, Stanley Way, Orpington, BR5 2HE, GB",
    "lat": 51.3907361,
    "lng": 0.1075209,
    "phone": "+441689258507",
    "website": "https://tastehouseafrica.co.uk",
    "source": "osm",
    "source_id": "937864353",
    "search_term": "African restaurant",
    "country": "GB",
    "city": "London"
  },